stop_id,stop_code,stop_name,stop_lat,stop_lon,stop_url,location_type,parent_station,wheelchair_boarding,cate_type,tiploc
AAP,AAP,Alexandra Palace,51.59792,-0.12024,http://www.nationalrail.co.uk/stations/AAP/details.html,1,,1,1,
AAT,AAT,Achanalt,57.60960,-4.91385,http://www.nationalrail.co.uk/stations/AAT/details.html,1,,2,0,
ABA,ABA,Aberdare,51.71506,-3.44308,http://www.nationalrail.co.uk/stations/ABA/details.html,1,,1,0,
ABC,ABC,Altnabreac,58.38815,-3.70628,http://www.nationalrail.co.uk/stations/ABC/details.html,1,,2,0,
ABD,ABD,Aberdeen,57.14370,-2.09869,http://www.nationalrail.co.uk/stations/ABD/details.html,1,,1,2,
ABE,ABE,Aber,51.57497,-3.22983,http://www.nationalrail.co.uk/stations/ABE/details.html,1,,2,0,
ABF,ABF,Ashurst (Kent) - Bald Faced Stag PH,51.13071,0.15846,,1,,0,1,
ABH,ABH,Abererch,52.89858,-4.37418,http://www.nationalrail.co.uk/stations/ABH/details.html,1,,2,0,
ABW,ABW,Abbey Wood (London),51.49106,0.12139,http://www.nationalrail.co.uk/stations/ABW/details.html,1,,1,0,
ABY,ABY,Ashburys,53.47164,-2.19444,http://www.nationalrail.co.uk/stations/ABY/details.html,1,,2,1,
ACB,ACB,Acton Bridge,53.26651,-2.60313,http://www.nationalrail.co.uk/stations/ACB/details.html,1,,2,0,
ACC,ACC,Acton Central,51.50872,-0.26297,http://www.nationalrail.co.uk/stations/ACC/details.html,1,,2,0,
ACG,ACG,Acocks Green,52.44932,-1.81898,http://www.nationalrail.co.uk/stations/ACG/details.html,1,,2,0,
ACH,ACH,Achnashellach,57.48207,-5.33306,http://www.nationalrail.co.uk/stations/ACH/details.html,1,,2,0,
ACK,ACK,Acklington,55.30710,-1.65183,http://www.nationalrail.co.uk/stations/ACK/details.html,1,,1,0,
ACL,ACL,Acle,52.63468,1.54392,http://www.nationalrail.co.uk/stations/ACL/details.html,1,,2,0,
ACN,ACN,Achnasheen,57.57929,-5.07233,http://www.nationalrail.co.uk/stations/ACN/details.html,1,,2,0,
ACR,ACR,Accrington,53.75297,-2.36955,http://www.nationalrail.co.uk/stations/ACR/details.html,1,,1,1,
ACT,ACT,Ascot,51.40624,-0.67583,http://www.nationalrail.co.uk/stations/ACT/details.html,1,,2,2,
ACY,ACY,Abercynon,51.64345,-3.32857,http://www.nationalrail.co.uk/stations/ACY/details.html,1,,1,1,
ADC,ADC,Adlington (Cheshire),53.31955,-2.13356,http://www.nationalrail.co.uk/stations/ADC/details.html,1,,1,0,
ADD,ADD,Adderley Park,52.48309,-1.85594,http://www.nationalrail.co.uk/stations/ADD/details.html,1,,2,0,
ADK,ADK,Ardwick,53.47155,-2.21432,http://www.nationalrail.co.uk/stations/ADK/details.html,1,,2,0,
ADL,ADL,Adlington (Lancs),53.61324,-2.60307,http://www.nationalrail.co.uk/stations/ADL/details.html,1,,1,0,
ADM,ADM,Adisham,51.24120,1.19909,http://www.nationalrail.co.uk/stations/ADM/details.html,1,,1,0,
ADN,ADN,Ardrossan Town,55.63971,-4.81268,http://www.nationalrail.co.uk/stations/ADN/details.html,1,,1,0,
ADR,ADR,Airdrie,55.86398,-3.98291,http://www.nationalrail.co.uk/stations/ADR/details.html,1,,1,1,
ADS,ADS,Ardrossan Harbour,55.63987,-4.82111,http://www.nationalrail.co.uk/stations/ADS/details.html,1,,1,1,
ADV,ADV,Andover,51.21155,-1.49223,http://www.nationalrail.co.uk/stations/ADV/details.html,1,,1,2,
ADW,ADW,Addiewell,55.84341,-3.60653,http://www.nationalrail.co.uk/stations/ADW/details.html,1,,2,0,
AFK,AFK,Ashford International,51.14371,0.87620,http://www.nationalrail.co.uk/stations/AFK/details.html,1,,1,2,
AFS,AFS,Ashford (Surrey),51.43651,-0.46807,http://www.nationalrail.co.uk/stations/AFS/details.html,1,,2,0,
AFV,AFV,Ansdell & Fairhaven,53.74146,-2.99303,http://www.nationalrail.co.uk/stations/AFV/details.html,1,,1,0,
AGL,AGL,Abergele & Pensarn,53.29457,-3.58262,http://www.nationalrail.co.uk/stations/AGL/details.html,1,,1,0,
AGR,AGR,Angel Road,51.61240,-0.04879,http://www.nationalrail.co.uk/stations/AGR/details.html,1,,2,0,
AGS,AGS,Argyle Street,55.85730,-4.25069,http://www.nationalrail.co.uk/stations/AGS/details.html,1,,2,0,
AGT,AGT,Aldrington,50.83638,-0.18382,http://www.nationalrail.co.uk/stations/AGT/details.html,1,,1,0,
AGV,AGV,Abergavenny,51.81669,-3.00965,http://www.nationalrail.co.uk/stations/AGV/details.html,1,,2,2,
AHD,AHD,Ashtead,51.31787,-0.30757,http://www.nationalrail.co.uk/stations/AHD/details.html,1,,1,0,
AHN,AHN,Ashton-under-Lyne,53.49127,-2.09431,http://www.nationalrail.co.uk/stations/AHN/details.html,1,,1,0,
AHS,AHS,Ashurst (Kent),51.12866,0.15265,http://www.nationalrail.co.uk/stations/AHS/details.html,1,,2,0,
AHT,AHT,Aldershot,51.24642,-0.75986,http://www.nationalrail.co.uk/stations/AHT/details.html,1,,2,2,
AHV,AHV,Ash Vale,51.27225,-0.72165,http://www.nationalrail.co.uk/stations/AHV/details.html,1,,2,2,
AIG,AIG,Aigburth,53.36456,-2.92715,http://www.nationalrail.co.uk/stations/AIG/details.html,1,,2,0,
AIN,AIN,Aintree,53.47391,-2.95628,http://www.nationalrail.co.uk/stations/AIN/details.html,1,,1,0,
AIR,AIR,Airbles,55.78283,-3.99419,http://www.nationalrail.co.uk/stations/AIR/details.html,1,,1,0,
ALB,ALB,Albrighton,52.63794,-2.26890,http://www.nationalrail.co.uk/stations/ALB/details.html,1,,2,0,
ALD,ALD,Alderley Edge,53.30378,-2.23680,http://www.nationalrail.co.uk/stations/ALD/details.html,1,,1,2,
ALF,ALF,Alfreton,53.10043,-1.36970,http://www.nationalrail.co.uk/stations/ALF/details.html,1,,2,1,
ALK,ALK,Aslockton,52.95155,-0.89810,http://www.nationalrail.co.uk/stations/ALK/details.html,1,,1,0,
ALM,ALM,Alnmouth,55.39278,-1.63664,http://www.nationalrail.co.uk/stations/ALM/details.html,1,,1,1,
ALN,ALN,Althorne,51.64787,0.75248,http://www.nationalrail.co.uk/stations/ALN/details.html,1,,1,0,
ALO,ALO,Alloa,56.11779,-3.79006,http://www.nationalrail.co.uk/stations/ALO/details.html,1,,1,0,
ALP,ALP,Althorpe,53.58550,-0.73318,http://www.nationalrail.co.uk/stations/ALP/details.html,1,,2,0,
ALR,ALR,Alresford (Essex),51.85400,0.99744,http://www.nationalrail.co.uk/stations/ALR/details.html,1,,1,0,
ALT,ALT,Altrincham,53.38772,-2.34689,http://www.nationalrail.co.uk/stations/ALT/details.html,1,,1,2,
ALV,ALV,Alvechurch,52.34607,-1.96766,http://www.nationalrail.co.uk/stations/ALV/details.html,1,,1,0,
ALW,ALW,Allens West,54.52462,-1.36112,http://www.nationalrail.co.uk/stations/ALW/details.html,1,,1,0,
ALX,ALX,Alexandria,55.98508,-4.57748,http://www.nationalrail.co.uk/stations/ALX/details.html,1,,1,0,
AMB,AMB,Ambergate,53.06052,-1.48070,http://www.nationalrail.co.uk/stations/AMB/details.html,1,,1,0,
AMF,AMF,Ammanford,51.79597,-3.99673,http://www.nationalrail.co.uk/stations/AMF/details.html,1,,1,0,
AML,AML,Acton Main Line,51.51718,-0.26676,http://www.nationalrail.co.uk/stations/AML/details.html,1,,2,0,
AMR,AMR,Amersham,51.67421,-0.60760,http://www.nationalrail.co.uk/stations/AMR/details.html,1,,2,1,
AMT,AMT,Aldermaston,51.40196,-1.13742,http://www.nationalrail.co.uk/stations/AMT/details.html,1,,1,0,
AMY,AMY,Amberley,50.89668,-0.54199,http://www.nationalrail.co.uk/stations/AMY/details.html,1,,2,0,
ANC,ANC,Ancaster,52.98769,-0.53562,http://www.nationalrail.co.uk/stations/ANC/details.html,1,,2,0,
AND,AND,Anderston,55.85990,-4.27098,http://www.nationalrail.co.uk/stations/AND/details.html,1,,2,0,
ANF,ANF,Ashurst New Forest,50.88985,-1.52663,http://www.nationalrail.co.uk/stations/ANF/details.html,1,,2,0,
ANG,ANG,Angmering,50.81658,-0.48939,http://www.nationalrail.co.uk/stations/ANG/details.html,1,,1,2,
ANL,ANL,Anniesland,55.88935,-4.32196,http://www.nationalrail.co.uk/stations/ANL/details.html,1,,2,1,
ANN,ANN,Annan,54.98384,-3.26258,http://www.nationalrail.co.uk/stations/ANN/details.html,1,,1,0,
ANS,ANS,Ainsdale,53.60203,-3.04265,http://www.nationalrail.co.uk/stations/ANS/details.html,1,,1,0,
ANZ,ANZ,Anerley,51.41215,-0.06589,http://www.nationalrail.co.uk/stations/ANZ/details.html,1,,2,0,
AON,AON,Alton,51.15197,-0.96691,http://www.nationalrail.co.uk/stations/AON/details.html,1,,2,0,
APB,APB,Appley Bridge,53.57867,-2.71925,http://www.nationalrail.co.uk/stations/APB/details.html,1,,1,0,
APD,APD,Appledore (Kent),51.03324,0.81634,http://www.nationalrail.co.uk/stations/APD/details.html,1,,1,0,
APF,APF,Appleford,51.63964,-1.24214,http://www.nationalrail.co.uk/stations/APF/details.html,1,,2,0,
APG,APG,Aspley Guise,52.02124,-0.63233,http://www.nationalrail.co.uk/stations/APG/details.html,1,,1,0,
APN,APN,Newcastle Airport Metro Station,55.03595,-1.71105,,1,,0,0,
APP,APP,Appleby,54.58035,-2.48669,http://www.nationalrail.co.uk/stations/APP/details.html,1,,1,2,
APS,APS,Apsley,51.73252,-0.46293,http://www.nationalrail.co.uk/stations/APS/details.html,1,,2,0,
APY,APY,Apperley Bridge,53.84175,-1.70583,,1,,0,0,
ARB,ARB,Arbroath,56.55957,-2.58893,http://www.nationalrail.co.uk/stations/ARB/details.html,1,,1,0,
ARD,ARD,Ardgay,57.88145,-4.36209,http://www.nationalrail.co.uk/stations/ARD/details.html,1,,2,0,
ARG,ARG,Arisaig,56.91255,-5.83908,http://www.nationalrail.co.uk/stations/ARG/details.html,1,,2,0,
ARL,ARL,Arlesey,52.02603,-0.26632,http://www.nationalrail.co.uk/stations/ARL/details.html,1,,2,0,
ARM,ARM,Armadale (W Lothian),55.88571,-3.69541,http://www.nationalrail.co.uk/stations/ARM/details.html,1,,1,0,
ARN,ARN,Arnside,54.20273,-2.82824,http://www.nationalrail.co.uk/stations/ARN/details.html,1,,2,1,
ARP,ARP,Alvechurch - Red Lion PH,52.35286,-1.96096,,1,,0,1,
ARR,ARR,Arram,53.88434,-0.42657,http://www.nationalrail.co.uk/stations/ARR/details.html,1,,2,0,
ART,ART,Arrochar & Tarbet,56.20397,-4.72277,http://www.nationalrail.co.uk/stations/ART/details.html,1,,2,0,
ARU,ARU,Arundel,50.84821,-0.54617,http://www.nationalrail.co.uk/stations/ARU/details.html,1,,1,1,
ASB,ASB,Ardrossan South Beach,55.64142,-4.80121,http://www.nationalrail.co.uk/stations/ASB/details.html,1,,1,1,
ASC,ASC,Ashchurch for Tewkesbury,51.99890,-2.10876,http://www.nationalrail.co.uk/stations/ASC/details.html,1,,1,0,
ASF,ASF,Ashfield,55.88892,-4.24921,http://www.nationalrail.co.uk/stations/ASF/details.html,1,,1,0,
ASG,ASG,Alsager,53.09300,-2.29906,http://www.nationalrail.co.uk/stations/ASG/details.html,1,,1,0,
ASH,ASH,Ash,51.24960,-0.71281,http://www.nationalrail.co.uk/stations/ASH/details.html,1,,2,2,
ASK,ASK,Askam,54.18893,-3.20451,http://www.nationalrail.co.uk/stations/ASK/details.html,1,,2,0,
ASN,ASN,Addlestone,51.37305,-0.48446,http://www.nationalrail.co.uk/stations/ASN/details.html,1,,2,0,
ASP,ASP,Aspatria,54.75896,-3.33187,http://www.nationalrail.co.uk/stations/ASP/details.html,1,,1,0,
ASS,ASS,Alness,57.69439,-4.24972,http://www.nationalrail.co.uk/stations/ASS/details.html,1,,1,0,
AST,AST,Aston,52.50423,-1.87193,http://www.nationalrail.co.uk/stations/AST/details.html,1,,1,1,
ASY,ASY,Ashley,53.35572,-2.34146,http://www.nationalrail.co.uk/stations/ASY/details.html,1,,1,0,
ATB,ATB,Attenborough,52.90621,-1.23142,http://www.nationalrail.co.uk/stations/ATB/details.html,1,,1,0,
ATH,ATH,Atherstone,52.57897,-1.55281,http://www.nationalrail.co.uk/stations/ATH/details.html,1,,1,0,
ATL,ATL,Attleborough,52.51455,1.02235,http://www.nationalrail.co.uk/stations/ATL/details.html,1,,1,0,
ATN,ATN,Atherton,53.52914,-2.47897,http://www.nationalrail.co.uk/stations/ATN/details.html,1,,1,0,
ATT,ATT,Attadale,57.39504,-5.45558,http://www.nationalrail.co.uk/stations/ATT/details.html,1,,2,0,
AUD,AUD,Audley End,52.00444,0.20731,http://www.nationalrail.co.uk/stations/AUD/details.html,1,,1,1,
AUG,AUG,Aughton Park,53.55425,-2.89522,http://www.nationalrail.co.uk/stations/AUG/details.html,1,,2,0,
AUI,AUI,Ardlui,56.30197,-4.72166,http://www.nationalrail.co.uk/stations/AUI/details.html,1,,2,0,
AUK,AUK,Auchinleck,55.47027,-4.29535,http://www.nationalrail.co.uk/stations/AUK/details.html,1,,2,0,
AUR,AUR,Aberdour,56.05459,-3.30056,http://www.nationalrail.co.uk/stations/AUR/details.html,1,,2,0,
AUW,AUW,Ascott-under-Wychwood,51.86734,-1.56405,http://www.nationalrail.co.uk/stations/AUW/details.html,1,,1,0,
AVF,AVF,Avoncliff,51.33965,-2.28133,http://www.nationalrail.co.uk/stations/AVF/details.html,1,,2,0,
AVM,AVM,Aviemore,57.18851,-3.82887,http://www.nationalrail.co.uk/stations/AVM/details.html,1,,2,1,
AVN,AVN,Avonmouth,51.50036,-2.69947,http://www.nationalrail.co.uk/stations/AVN/details.html,1,,2,1,
AVP,AVP,Aylesbury Vale Parkway,51.83116,-0.86018,http://www.nationalrail.co.uk/stations/AVP/details.html,1,,1,0,
AVY,AVY,Aberdovey,52.54396,-4.05707,http://www.nationalrail.co.uk/stations/AVY/details.html,1,,2,0,
AWK,AWK,Adwick,53.57232,-1.18036,http://www.nationalrail.co.uk/stations/AWK/details.html,1,,1,1,
AWM,AWM,Ashwell & Morden,52.03077,-0.10979,http://www.nationalrail.co.uk/stations/AWM/details.html,1,,2,0,
AWT,AWT,Armathwaite,54.80947,-2.77207,http://www.nationalrail.co.uk/stations/AWT/details.html,1,,2,0,
AXM,AXM,Axminster,50.77927,-3.00472,http://www.nationalrail.co.uk/stations/AXM/details.html,1,,1,1,
AXP,AXP,Alexandra Parade,55.86317,-4.21065,http://www.nationalrail.co.uk/stations/AXP/details.html,1,,2,0,
AYH,AYH,Aylesham,51.22725,1.20945,http://www.nationalrail.co.uk/stations/AYH/details.html,1,,2,0,
AYL,AYL,Aylesford,51.30132,0.46617,http://www.nationalrail.co.uk/stations/AYL/details.html,1,,2,0,
AYP,AYP,Albany Park,51.43545,0.12574,http://www.nationalrail.co.uk/stations/AYP/details.html,1,,2,0,
AYR,AYR,Ayr,55.45814,-4.62588,http://www.nationalrail.co.uk/stations/AYR/details.html,1,,2,2,
AYS,AYS,Aylesbury,51.81389,-0.81510,http://www.nationalrail.co.uk/stations/AYS/details.html,1,,1,1,
AYW,AYW,Aberystwyth,52.41404,-4.08189,http://www.nationalrail.co.uk/stations/AYW/details.html,1,,1,0,
BAA,BAA,Barnham,50.83091,-0.63968,http://www.nationalrail.co.uk/stations/BAA/details.html,1,,1,2,
BAB,BAB,Balcombe,51.05552,-0.13693,http://www.nationalrail.co.uk/stations/BAB/details.html,1,,2,0,
BAC,BAC,Bache,53.20879,-2.89167,http://www.nationalrail.co.uk/stations/BAC/details.html,1,,2,0,
BAD,BAD,Banstead,51.32935,-0.21316,http://www.nationalrail.co.uk/stations/BAD/details.html,1,,2,0,
BAG,BAG,Bagshot,51.36437,-0.68866,http://www.nationalrail.co.uk/stations/BAG/details.html,1,,2,0,
BAH,BAH,Bank Hall,53.43749,-2.98751,http://www.nationalrail.co.uk/stations/BAH/details.html,1,,2,0,
BAI,BAI,Blairhill,55.86645,-4.04329,http://www.nationalrail.co.uk/stations/BAI/details.html,1,,2,0,
BAJ,BAJ,Baglan,51.61554,-3.81114,http://www.nationalrail.co.uk/stations/BAJ/details.html,1,,1,0,
BAK,BAK,Battersea Park,51.47696,-0.14753,http://www.nationalrail.co.uk/stations/BAK/details.html,1,,2,2,
BAL,BAL,Balham,51.44322,-0.15242,http://www.nationalrail.co.uk/stations/BAL/details.html,1,,2,2,
BAM,BAM,Bamford,53.33900,-1.68908,http://www.nationalrail.co.uk/stations/BAM/details.html,1,,2,0,
BAN,BAN,Banbury,52.06031,-1.32813,http://www.nationalrail.co.uk/stations/BAN/details.html,1,,2,2,
BAR,BAR,Bare Lane,54.07454,-2.83533,http://www.nationalrail.co.uk/stations/BAR/details.html,1,,1,0,
BAS,BAS,Bere Alston,50.48559,-4.20035,http://www.nationalrail.co.uk/stations/BAS/details.html,1,,1,0,
BAT,BAT,Battle,50.91292,0.49470,http://www.nationalrail.co.uk/stations/BAT/details.html,1,,2,1,
BAU,BAU,Barton-on-Humber,53.68892,-0.44344,http://www.nationalrail.co.uk/stations/BAU/details.html,1,,1,1,
BAV,BAV,Barrow Haven,53.69742,-0.39296,http://www.nationalrail.co.uk/stations/BAV/details.html,1,,1,0,
BAW,BAW,Blackwater,51.33158,-0.77674,http://www.nationalrail.co.uk/stations/BAW/details.html,1,,2,1,
BAY,BAY,Bayford,51.75772,-0.09561,http://www.nationalrail.co.uk/stations/BAY/details.html,1,,2,0,
BBG,BBG,Bishopbriggs,55.90388,-4.22491,http://www.nationalrail.co.uk/stations/BBG/details.html,1,,2,0,
BBK,BBK,Bilbrook,52.62372,-2.18609,http://www.nationalrail.co.uk/stations/BBK/details.html,1,,1,0,
BBL,BBL,Bat & Ball,51.28976,0.19423,http://www.nationalrail.co.uk/stations/BBL/details.html,1,,2,0,
BBN,BBN,Blackburn,53.74652,-2.47912,http://www.nationalrail.co.uk/stations/BBN/details.html,1,,1,1,
BBS,BBS,Bordesley,52.47187,-1.87777,http://www.nationalrail.co.uk/stations/BBS/details.html,1,,2,0,
BBW,BBW,Berry Brow,53.62104,-1.79343,http://www.nationalrail.co.uk/stations/BBW/details.html,1,,2,0,
BCB,BCB,Burscough Bridge,53.60526,-2.84088,http://www.nationalrail.co.uk/stations/BCB/details.html,1,,2,1,
BCC,BCC,Beccles,52.45852,1.56949,http://www.nationalrail.co.uk/stations/BCC/details.html,1,,1,0,
BCE,BCE,Bracknell,51.41309,-0.75170,http://www.nationalrail.co.uk/stations/BCE/details.html,1,,1,1,
BCF,BCF,Beaconsfield,51.61129,-0.64382,http://www.nationalrail.co.uk/stations/BCF/details.html,1,,1,1,
BCG,BCG,Birchgrove,51.52156,-3.20185,http://www.nationalrail.co.uk/stations/BCG/details.html,1,,1,0,
BCH,BCH,Birchington-on-Sea,51.37749,1.30141,http://www.nationalrail.co.uk/stations/BCH/details.html,1,,1,0,
BCJ,BCJ,Burscough Junction,53.59752,-2.84061,http://www.nationalrail.co.uk/stations/BCJ/details.html,1,,1,1,
BCK,BCK,Buckley,53.16304,-3.05593,http://www.nationalrail.co.uk/stations/BCK/details.html,1,,1,0,
BCN,BCN,Branchton,55.94060,-4.80355,http://www.nationalrail.co.uk/stations/BCN/details.html,1,,1,0,
BCS,BCS,Bicester North,51.90348,-1.15038,http://www.nationalrail.co.uk/stations/BCS/details.html,1,,2,2,
BCU,BCU,Brockenhurst,50.81684,-1.57353,http://www.nationalrail.co.uk/stations/BCU/details.html,1,,1,1,
BCV,BCV,Bruce Grove,51.59396,-0.06987,http://www.nationalrail.co.uk/stations/BCV/details.html,1,,2,0,
BCY,BCY,Brockley,51.46465,-0.03754,http://www.nationalrail.co.uk/stations/BCY/details.html,1,,2,0,
BDA,BDA,Brundall,52.61948,1.43930,http://www.nationalrail.co.uk/stations/BDA/details.html,1,,1,1,
BDB,BDB,Broadbottom,53.44097,-2.01652,http://www.nationalrail.co.uk/stations/BDB/details.html,1,,2,0,
BDG,BDG,Bridgeton,55.84896,-4.22606,http://www.nationalrail.co.uk/stations/BDG/details.html,1,,2,1,
BDH,BDH,Bedhampton,50.85396,-0.99583,http://www.nationalrail.co.uk/stations/BDH/details.html,1,,2,0,
BDI,BDI,Bradford Interchange,53.79108,-1.74960,http://www.nationalrail.co.uk/stations/BDI/details.html,1,,1,2,
BDK,BDK,Baldock,51.99287,-0.18756,http://www.nationalrail.co.uk/stations/BDK/details.html,1,,2,0,
BDL,BDL,Birkdale,53.63405,-3.01445,http://www.nationalrail.co.uk/stations/BDL/details.html,1,,1,0,
BDM,BDM,Bedford,52.13619,-0.47944,http://www.nationalrail.co.uk/stations/BDM/details.html,1,,1,2,
BDN,BDN,Brading,50.67837,-1.13872,http://www.nationalrail.co.uk/stations/BDN/details.html,1,,1,0,
BDQ,BDQ,Bradford Forster Square,53.79692,-1.75296,http://www.nationalrail.co.uk/stations/BDQ/details.html,1,,1,2,
BDT,BDT,Bridlington,54.08413,-0.19872,http://www.nationalrail.co.uk/stations/BDT/details.html,1,,2,1,
BDW,BDW,Bedwyn,51.37964,-1.59879,http://www.nationalrail.co.uk/stations/BDW/details.html,1,,2,1,
BDY,BDY,Bredbury,53.42315,-2.11049,http://www.nationalrail.co.uk/stations/BDY/details.html,1,,2,0,
BEA,BEA,Bridge of Allan,56.15664,-3.95723,http://www.nationalrail.co.uk/stations/BEA/details.html,1,,2,0,
BEB,BEB,Bebington,53.35765,-3.00363,http://www.nationalrail.co.uk/stations/BEB/details.html,1,,1,0,
BEC,BEC,Beckenham Hill,51.42458,-0.01595,http://www.nationalrail.co.uk/stations/BEC/details.html,1,,1,0,
BEE,BEE,Beeston,52.92075,-1.20766,http://www.nationalrail.co.uk/stations/BEE/details.html,1,,2,1,
BEF,BEF,Benfleet,51.54395,0.56171,http://www.nationalrail.co.uk/stations/BEF/details.html,1,,1,0,
BEG,BEG,Beltring,51.20471,0.40350,http://www.nationalrail.co.uk/stations/BEG/details.html,1,,1,0,
BEH,BEH,Bedworth,52.47930,-1.46739,http://www.nationalrail.co.uk/stations/BEH/details.html,1,,1,0,
BEL,BEL,Beauly,57.47828,-4.46987,http://www.nationalrail.co.uk/stations/BEL/details.html,1,,1,0,
BEM,BEM,Bempton,54.12766,-0.18046,http://www.nationalrail.co.uk/stations/BEM/details.html,1,,1,0,
BEN,BEN,Bentham,54.11552,-2.51068,http://www.nationalrail.co.uk/stations/BEN/details.html,1,,2,1,
BEP,BEP,Bermuda Park,52.50143,-1.47218,,1,,0,0,
BER,BER,Bearley,52.24441,-1.75026,http://www.nationalrail.co.uk/stations/BER/details.html,1,,1,0,
BES,BES,Bescar Lane,53.62385,-2.91461,http://www.nationalrail.co.uk/stations/BES/details.html,1,,1,0,
BET,BET,Bethnal Green,51.52392,-0.05957,http://www.nationalrail.co.uk/stations/BET/details.html,1,,2,0,
BEU,BEU,Beaulieu Road,50.85505,-1.50475,http://www.nationalrail.co.uk/stations/BEU/details.html,1,,2,0,
BEV,BEV,Beverley,53.84227,-0.42298,http://www.nationalrail.co.uk/stations/BEV/details.html,1,,2,0,
BEX,BEX,Bexhill,50.84104,0.47702,http://www.nationalrail.co.uk/stations/BEX/details.html,1,,1,1,
BEY,BEY,Ben Rhydding,53.92571,-1.79743,http://www.nationalrail.co.uk/stations/BEY/details.html,1,,1,0,
BFD,BFD,Brentford,51.48755,-0.30965,http://www.nationalrail.co.uk/stations/BFD/details.html,1,,1,1,
BFE,BFE,Bere Ferrers,50.45128,-4.18143,http://www.nationalrail.co.uk/stations/BFE/details.html,1,,2,0,
BFF,BFF,Blaenau Ffestiniog,52.99455,-3.93859,http://www.nationalrail.co.uk/stations/BFF/details.html,1,,1,0,
BFN,BFN,Byfleet & New Haw,51.34980,-0.48139,http://www.nationalrail.co.uk/stations/BFN/details.html,1,,2,1,
BFR,BFR,London Blackfriars,51.51181,-0.10333,http://www.nationalrail.co.uk/stations/BFR/details.html,1,,1,3,
BGA,BGA,Brundall Gardens,52.62344,1.41842,http://www.nationalrail.co.uk/stations/BGA/details.html,1,,2,0,
BGD,BGD,Bargoed,51.69231,-3.22968,http://www.nationalrail.co.uk/stations/BGD/details.html,1,,1,1,
BGE,BGE,Broad Green,53.40650,-2.89348,http://www.nationalrail.co.uk/stations/BGE/details.html,1,,1,0,
BGG,BGG,Brigg,53.54915,-0.48612,http://www.nationalrail.co.uk/stations/BGG/details.html,1,,2,0,
BGH,BGH,Brighouse,53.69820,-1.77944,http://www.nationalrail.co.uk/stations/BGH/details.html,1,,1,1,
BGI,BGI,Bargeddie,55.85129,-4.07381,http://www.nationalrail.co.uk/stations/BGI/details.html,1,,1,0,
BGL,BGL,Bugle,50.40035,-4.79210,http://www.nationalrail.co.uk/stations/BGL/details.html,1,,2,0,
BGM,BGM,Bellingham,51.43291,-0.01933,http://www.nationalrail.co.uk/stations/BGM/details.html,1,,2,0,
BGN,BGN,Bridgend,51.50697,-3.57528,http://www.nationalrail.co.uk/stations/BGN/details.html,1,,1,1,
BGS,BGS,Bogston,55.93704,-4.71140,http://www.nationalrail.co.uk/stations/BGS/details.html,1,,2,0,
BHC,BHC,Balloch,56.00293,-4.58349,http://www.nationalrail.co.uk/stations/BHC/details.html,1,,1,0,
BHD,BHD,Brithdir,51.71030,-3.22872,http://www.nationalrail.co.uk/stations/BHD/details.html,1,,1,0,
BHG,BHG,Bathgate,55.89715,-3.63610,http://www.nationalrail.co.uk/stations/BHG/details.html,1,,1,1,
BHI,BHI,Birmingham International,52.45081,-1.72586,http://www.nationalrail.co.uk/stations/BHI/details.html,1,,1,3,
BHK,BHK,Bush Hill Park,51.64152,-0.06922,http://www.nationalrail.co.uk/stations/BHK/details.html,1,,2,0,
BHM,BHM,Birmingham New Street,52.47782,-1.90021,http://www.nationalrail.co.uk/stations/BHM/details.html,1,,1,3,
BHO,BHO,Blackhorse Road,51.58661,-0.04124,http://www.nationalrail.co.uk/stations/BHO/details.html,1,,2,1,
BHR,BHR,Builth Road,52.16932,-3.42703,http://www.nationalrail.co.uk/stations/BHR/details.html,1,,1,0,
BHS,BHS,Brockholes,53.59697,-1.76969,http://www.nationalrail.co.uk/stations/BHS/details.html,1,,1,0,
BIA,BIA,Bishop Auckland,54.65720,-1.67771,http://www.nationalrail.co.uk/stations/BIA/details.html,1,,1,0,
BIC,BIC,Billericay,51.62888,0.41863,http://www.nationalrail.co.uk/stations/BIC/details.html,1,,1,1,
BID,BID,Bidston,53.40914,-3.07856,http://www.nationalrail.co.uk/stations/BID/details.html,1,,2,1,
BIF,BIF,Barrow-in-Furness,54.11900,-3.22612,http://www.nationalrail.co.uk/stations/BIF/details.html,1,,2,1,
BIG,BIG,Billingshurst,51.01520,-0.45030,http://www.nationalrail.co.uk/stations/BIG/details.html,1,,1,1,
BIK,BIK,Birkbeck,51.40389,-0.05574,http://www.nationalrail.co.uk/stations/BIK/details.html,1,,2,0,
BIL,BIL,Billingham,54.60561,-1.27972,http://www.nationalrail.co.uk/stations/BIL/details.html,1,,2,0,
BIN,BIN,Bingham,52.95419,-0.95154,,1,,0,0,
BIO,BIO,Baillieston,55.84450,-4.11370,http://www.nationalrail.co.uk/stations/BIO/details.html,1,,1,0,
BIP,BIP,Bishopstone,50.78014,0.08276,http://www.nationalrail.co.uk/stations/BIP/details.html,1,,2,0,
BIR,BIR,Bishopstone - Hill Rise,50.78232,0.08441,,1,,0,1,
BIS,BIS,Bishops Stortford,51.86669,0.16489,http://www.nationalrail.co.uk/stations/BIS/details.html,1,,1,2,
BIT,BIT,Bicester Village,51.89302,-1.14876,http://www.nationalrail.co.uk/stations/BIT/details.html,1,,1,2,
BIW,BIW,Biggleswade,52.08468,-0.26119,http://www.nationalrail.co.uk/stations/BIW/details.html,1,,2,2,
BIY,BIY,Bingley,53.84861,-1.83732,http://www.nationalrail.co.uk/stations/BIY/details.html,1,,1,0,
BKA,BKA,Bookham,51.28874,-0.38402,http://www.nationalrail.co.uk/stations/BKA/details.html,1,,1,0,
BKC,BKC,Birkenhead Central,53.38831,-3.02082,http://www.nationalrail.co.uk/stations/BKC/details.html,1,,1,1,
BKD,BKD,Blakedown,52.40640,-2.17687,http://www.nationalrail.co.uk/stations/BKD/details.html,1,,1,0,
BKG,BKG,Barking,51.53949,0.08090,http://www.nationalrail.co.uk/stations/BKG/details.html,1,,1,1,
BKH,BKH,Blackheath,51.46580,0.00887,http://www.nationalrail.co.uk/stations/BKH/details.html,1,,1,1,
BKJ,BKJ,Beckenham Junction,51.41104,-0.02581,http://www.nationalrail.co.uk/stations/BKJ/details.html,1,,1,2,
BKL,BKL,Bickley,51.40010,0.04524,http://www.nationalrail.co.uk/stations/BKL/details.html,1,,2,2,
BKM,BKM,Berkhamsted,51.76313,-0.56201,,1,,0,0,
BKN,BKN,Birkenhead North,53.40443,-3.05753,http://www.nationalrail.co.uk/stations/BKN/details.html,1,,2,1,
BKO,BKO,Brookwood,51.30376,-0.63575,http://www.nationalrail.co.uk/stations/BKO/details.html,1,,2,2,
BKP,BKP,Birkenhead Park,53.39741,-3.03910,http://www.nationalrail.co.uk/stations/BKP/details.html,1,,2,0,
BKQ,BKQ,Birkenhead Hamilton Square,53.39469,-3.01368,http://www.nationalrail.co.uk/stations/BKQ/details.html,1,,1,2,
BKR,BKR,Blackridge,55.88425,-3.75080,http://www.nationalrail.co.uk/stations/BKR/details.html,1,,1,0,
BKS,BKS,Bekesbourne,51.26136,1.13671,http://www.nationalrail.co.uk/stations/BKS/details.html,1,,1,0,
BKT,BKT,Blake Street,52.60488,-1.84491,http://www.nationalrail.co.uk/stations/BKT/details.html,1,,1,0,
BKW,BKW,Berkswell,52.39588,-1.64284,http://www.nationalrail.co.uk/stations/BKW/details.html,1,,1,0,
BLA,BLA,Blair Atholl,56.76555,-3.85023,http://www.nationalrail.co.uk/stations/BLA/details.html,1,,1,0,
BLB,BLB,Battlesbridge,51.62483,0.56529,http://www.nationalrail.co.uk/stations/BLB/details.html,1,,1,0,
BLD,BLD,Baildon,53.85022,-1.75364,http://www.nationalrail.co.uk/stations/BLD/details.html,1,,1,0,
BLE,BLE,Bramley (West Yorks),53.80535,-1.63721,http://www.nationalrail.co.uk/stations/BLE/details.html,1,,2,0,
BLG,BLG,Bellgrove,55.85670,-4.22437,http://www.nationalrail.co.uk/stations/BLG/details.html,1,,2,1,
BLH,BLH,Bellshill,55.81706,-4.02450,http://www.nationalrail.co.uk/stations/BLH/details.html,1,,1,1,
BLK,BLK,Blackrod,53.59152,-2.56952,http://www.nationalrail.co.uk/stations/BLK/details.html,1,,2,0,
BLL,BLL,Bardon Mill,54.97449,-2.34650,http://www.nationalrail.co.uk/stations/BLL/details.html,1,,1,0,
BLM,BLM,Belmont,51.34381,-0.19886,http://www.nationalrail.co.uk/stations/BLM/details.html,1,,1,0,
BLN,BLN,Blundellsands & Crosby,53.48768,-3.03986,http://www.nationalrail.co.uk/stations/BLN/details.html,1,,1,0,
BLO,BLO,Blaydon,54.96579,-1.71258,http://www.nationalrail.co.uk/stations/BLO/details.html,1,,2,0,
BLP,BLP,Belper,53.02376,-1.48251,http://www.nationalrail.co.uk/stations/BLP/details.html,1,,1,1,
BLT,BLT,Blantyre,55.79733,-4.08697,http://www.nationalrail.co.uk/stations/BLT/details.html,1,,1,0,
BLV,BLV,Belle Vue,53.46237,-2.18051,http://www.nationalrail.co.uk/stations/BLV/details.html,1,,2,0,
BLW,BLW,Bulwell,52.99970,-1.19623,http://www.nationalrail.co.uk/stations/BLW/details.html,1,,1,0,
BLX,BLX,Bloxwich,52.61820,-2.01148,http://www.nationalrail.co.uk/stations/BLX/details.html,1,,1,0,
BLY,BLY,Bletchley,51.99533,-0.73632,http://www.nationalrail.co.uk/stations/BLY/details.html,1,,2,2,
BMB,BMB,Bamber Bridge,53.72687,-2.66077,http://www.nationalrail.co.uk/stations/BMB/details.html,1,,1,0,
BMC,BMC,Bromley Cross,53.61404,-2.41090,http://www.nationalrail.co.uk/stations/BMC/details.html,1,,1,0,
BMD,BMD,Brimsdown,51.65558,-0.03082,http://www.nationalrail.co.uk/stations/BMD/details.html,1,,1,0,
BME,BME,Broome,52.42277,-2.88521,http://www.nationalrail.co.uk/stations/BME/details.html,1,,2,1,
BMF,BMF,Broomfleet,53.74021,-0.67183,http://www.nationalrail.co.uk/stations/BMF/details.html,1,,1,0,
BMG,BMG,Barming,51.28490,0.47896,http://www.nationalrail.co.uk/stations/BMG/details.html,1,,2,0,
BMH,BMH,Bournemouth,50.72727,-1.86450,http://www.nationalrail.co.uk/stations/BMH/details.html,1,,1,1,
BML,BML,Bramhall,53.36061,-2.16359,http://www.nationalrail.co.uk/stations/BML/details.html,1,,1,0,
BMN,BMN,Bromley North,51.40833,0.01699,http://www.nationalrail.co.uk/stations/BMN/details.html,1,,1,2,
BMO,BMO,Birmingham Moor Street,52.47908,-1.89247,http://www.nationalrail.co.uk/stations/BMO/details.html,1,,1,2,
BMP,BMP,Brampton (Cumbria),54.93239,-2.70295,http://www.nationalrail.co.uk/stations/BMP/details.html,1,,1,0,
BMR,BMR,Bromborough Rake,53.32991,-2.98947,http://www.nationalrail.co.uk/stations/BMR/details.html,1,,1,0,
BMS,BMS,Bromley South,51.39998,0.01734,http://www.nationalrail.co.uk/stations/BMS/details.html,1,,1,2,
BMT,BMT,Bedminster,51.44009,-2.59415,http://www.nationalrail.co.uk/stations/BMT/details.html,1,,2,0,
BMV,BMV,Bromsgrove,52.32060,-2.04978,http://www.nationalrail.co.uk/stations/BMV/details.html,1,,2,2,
BMY,BMY,Bramley (Hants),51.33029,-1.06100,http://www.nationalrail.co.uk/stations/BMY/details.html,1,,2,0,
BNA,BNA,Burnage,53.42117,-2.21568,http://www.nationalrail.co.uk/stations/BNA/details.html,1,,1,0,
BNC,BNC,Burnley Central,53.79351,-2.24497,http://www.nationalrail.co.uk/stations/BNC/details.html,1,,1,1,
BND,BND,Brandon,52.45401,0.62473,http://www.nationalrail.co.uk/stations/BND/details.html,1,,2,0,
BNE,BNE,Bourne End,51.57712,-0.71047,http://www.nationalrail.co.uk/stations/BNE/details.html,1,,1,1,
BNF,BNF,Briton Ferry,51.63790,-3.81925,http://www.nationalrail.co.uk/stations/BNF/details.html,1,,1,0,
BNG,BNG,Bangor (Gwynedd),53.22228,-4.13588,http://www.nationalrail.co.uk/stations/BNG/details.html,1,,1,2,
BNH,BNH,Barnehurst,51.46496,0.15965,http://www.nationalrail.co.uk/stations/BNH/details.html,1,,1,1,
BNI,BNI,Barnes Bridge,51.47201,-0.25263,http://www.nationalrail.co.uk/stations/BNI/details.html,1,,2,0,
BNL,BNL,Barnhill,55.87749,-4.22300,http://www.nationalrail.co.uk/stations/BNL/details.html,1,,2,0,
BNM,BNM,Burnham (Berks),51.52351,-0.64637,http://www.nationalrail.co.uk/stations/BNM/details.html,1,,2,0,
BNP,BNP,Barnstaple,51.07397,-4.06312,http://www.nationalrail.co.uk/stations/BNP/details.html,1,,1,0,
BNR,BNR,Brockley Whins,54.95954,-1.46135,,1,,0,0,
BNS,BNS,Barnes,51.46709,-0.24216,http://www.nationalrail.co.uk/stations/BNS/details.html,1,,2,2,
BNT,BNT,Brinnington,53.43212,-2.13512,http://www.nationalrail.co.uk/stations/BNT/details.html,1,,2,0,
BNV,BNV,Banavie,56.84331,-5.09543,http://www.nationalrail.co.uk/stations/BNV/details.html,1,,1,0,
BNW,BNW,Bootle New Strand,53.45339,-2.99475,http://www.nationalrail.co.uk/stations/BNW/details.html,1,,1,0,
BNY,BNY,Barnsley,53.55430,-1.47716,http://www.nationalrail.co.uk/stations/BNY/details.html,1,,1,2,
BOA,BOA,Bradford-on-Avon,51.34491,-2.25233,http://www.nationalrail.co.uk/stations/BOA/details.html,1,,2,1,
BOC,BOC,Bootle (Cumbria),54.29130,-3.39386,http://www.nationalrail.co.uk/stations/BOC/details.html,1,,1,0,
BOD,BOD,Bodmin Parkway,50.44586,-4.66293,http://www.nationalrail.co.uk/stations/BOD/details.html,1,,2,1,
BOE,BOE,Botley,50.91645,-1.25924,http://www.nationalrail.co.uk/stations/BOE/details.html,1,,2,0,
BOG,BOG,Bognor Regis,50.78656,-0.67618,http://www.nationalrail.co.uk/stations/BOG/details.html,1,,1,0,
BOH,BOH,Bosham,50.84275,-0.84743,http://www.nationalrail.co.uk/stations/BOH/details.html,1,,1,0,
BOM,BOM,Bromborough,53.32185,-2.98690,http://www.nationalrail.co.uk/stations/BOM/details.html,1,,2,0,
BON,BON,Bolton,53.57414,-2.42582,http://www.nationalrail.co.uk/stations/BON/details.html,1,,2,2,
BOP,BOP,Bowes Park,51.60701,-0.12058,http://www.nationalrail.co.uk/stations/BOP/details.html,1,,2,0,
BOR,BOR,Bodorgan,53.20430,-4.41800,http://www.nationalrail.co.uk/stations/BOR/details.html,1,,1,0,
BOT,BOT,Bootle Oriel Road,53.44662,-2.99573,http://www.nationalrail.co.uk/stations/BOT/details.html,1,,1,0,
BPB,BPB,Blackpool Pleasure Beach,53.78795,-3.05388,http://www.nationalrail.co.uk/stations/BPB/details.html,1,,1,0,
BPK,BPK,Brookmans Park,51.72106,-0.20455,http://www.nationalrail.co.uk/stations/BPK/details.html,1,,2,0,
BPL,BPL,Barlaston Orchard Place,52.94186,-2.17159,,1,,0,1,
BPN,BPN,Blackpool North,53.82191,-3.04927,http://www.nationalrail.co.uk/stations/BPN/details.html,1,,1,0,
BPS,BPS,Blackpool South,53.79870,-3.04894,http://www.nationalrail.co.uk/stations/BPS/details.html,1,,1,0,
BPT,BPT,Bishopton,55.90226,-4.50049,http://www.nationalrail.co.uk/stations/BPT/details.html,1,,2,0,
BPW,BPW,Bristol Parkway,51.51380,-2.54216,http://www.nationalrail.co.uk/stations/BPW/details.html,1,,1,2,
BRA,BRA,Brora,58.01295,-3.85228,http://www.nationalrail.co.uk/stations/BRA/details.html,1,,2,0,
BRC,BRC,Breich,55.82731,-3.66813,http://www.nationalrail.co.uk/stations/BRC/details.html,1,,2,0,
BRE,BRE,Brentwood,51.61361,0.29959,http://www.nationalrail.co.uk/stations/BRE/details.html,1,,2,1,
BRF,BRF,Brierfield,53.82398,-2.23649,http://www.nationalrail.co.uk/stations/BRF/details.html,1,,1,0,
BRG,BRG,Borough Green & Wrotham,51.29322,0.30625,http://www.nationalrail.co.uk/stations/BRG/details.html,1,,1,1,
BRH,BRH,Borth,52.49103,-4.05018,http://www.nationalrail.co.uk/stations/BRH/details.html,1,,1,0,
BRI,BRI,Bristol Temple Meads,51.44914,-2.58132,http://www.nationalrail.co.uk/stations/BRI/details.html,1,,1,2,
BRK,BRK,Berwick (Sussex),50.84038,0.16602,http://www.nationalrail.co.uk/stations/BRK/details.html,1,,1,2,
BRL,BRL,Barrhill,55.09700,-4.78178,http://www.nationalrail.co.uk/stations/BRL/details.html,1,,2,0,
BRM,BRM,Barmouth,52.72289,-4.05660,http://www.nationalrail.co.uk/stations/BRM/details.html,1,,1,0,
BRN,BRN,Bearsden,55.91713,-4.33202,http://www.nationalrail.co.uk/stations/BRN/details.html,1,,1,0,
BRO,BRO,Bridge of Orchy,56.51587,-4.76299,http://www.nationalrail.co.uk/stations/BRO/details.html,1,,2,0,
BRP,BRP,Brampton (Suffolk),52.39544,1.54381,http://www.nationalrail.co.uk/stations/BRP/details.html,1,,1,0,
BRR,BRR,Barrhead,55.80375,-4.39728,http://www.nationalrail.co.uk/stations/BRR/details.html,1,,1,1,
BRS,BRS,Berrylands,51.39905,-0.28071,http://www.nationalrail.co.uk/stations/BRS/details.html,1,,2,0,
BRU,BRU,Bruton,51.11164,-2.44707,http://www.nationalrail.co.uk/stations/BRU/details.html,1,,2,0,
BRV,BRV,Bournville,52.42696,-1.92642,http://www.nationalrail.co.uk/stations/BRV/details.html,1,,2,0,
BRW,BRW,Brunswick,53.38324,-2.97608,http://www.nationalrail.co.uk/stations/BRW/details.html,1,,1,0,
BRX,BRX,Brixton,51.46330,-0.11418,http://www.nationalrail.co.uk/stations/BRX/details.html,1,,2,0,
BRY,BRY,Barry,51.39678,-3.28498,http://www.nationalrail.co.uk/stations/BRY/details.html,1,,2,1,
BSB,BSB,Bleasby,53.04137,-0.94369,http://www.nationalrail.co.uk/stations/BSB/details.html,1,,1,0,
BSC,BSC,Bescot Stadium,52.56309,-1.99111,http://www.nationalrail.co.uk/stations/BSC/details.html,1,,2,0,
BSD,BSD,Bearsted,51.27582,0.57758,http://www.nationalrail.co.uk/stations/BSD/details.html,1,,2,0,
BSE,BSE,Bury St Edmunds,52.25376,0.71331,http://www.nationalrail.co.uk/stations/BSE/details.html,1,,1,1,
BSH,BSH,Bushey,51.64558,-0.38475,http://www.nationalrail.co.uk/stations/BSH/details.html,1,,2,1,
BSI,BSI,Balmossie,56.47457,-2.83896,http://www.nationalrail.co.uk/stations/BSI/details.html,1,,2,0,
BSJ,BSJ,Bedford St Johns,52.12948,-0.46750,http://www.nationalrail.co.uk/stations/BSJ/details.html,1,,1,0,
BSK,BSK,Basingstoke,51.26836,-1.08726,http://www.nationalrail.co.uk/stations/BSK/details.html,1,,1,2,
BSL,BSL,Beasdale,56.89955,-5.76380,http://www.nationalrail.co.uk/stations/BSL/details.html,1,,2,0,
BSM,BSM,Branksome,50.72696,-1.91976,http://www.nationalrail.co.uk/stations/BSM/details.html,1,,2,0,
BSN,BSN,Boston,52.97809,-0.03100,http://www.nationalrail.co.uk/stations/BSN/details.html,1,,1,1,
BSO,BSO,Basildon,51.56811,0.45679,http://www.nationalrail.co.uk/stations/BSO/details.html,1,,1,1,
BSP,BSP,Brondesbury Park,51.54070,-0.21013,http://www.nationalrail.co.uk/stations/BSP/details.html,1,,2,0,
BSR,BSR,Broadstairs,51.36067,1.43356,http://www.nationalrail.co.uk/stations/BSR/details.html,1,,1,0,
BSS,BSS,Barassie,55.56106,-4.65114,http://www.nationalrail.co.uk/stations/BSS/details.html,1,,2,1,
BSU,BSU,Brunstane,55.94251,-3.10099,http://www.nationalrail.co.uk/stations/BSU/details.html,1,,1,0,
BSV,BSV,Buckshaw Parkway,53.67334,-2.66083,http://www.nationalrail.co.uk/stations/BSV/details.html,1,,1,0,
BSW,BSW,Birmingham Snow Hill,52.48336,-1.89909,http://www.nationalrail.co.uk/stations/BSW/details.html,1,,1,2,
BSY,BSY,Brondesbury,51.54517,-0.20231,http://www.nationalrail.co.uk/stations/BSY/details.html,1,,2,0,
BTB,BTB,Barnetby,53.57512,-0.40968,http://www.nationalrail.co.uk/stations/BTB/details.html,1,,1,1,
BTD,BTD,Bolton-Upon-Dearne,53.51895,-1.31155,http://www.nationalrail.co.uk/stations/BTD/details.html,1,,2,0,
BTE,BTE,Bitterne,50.91822,-1.37700,http://www.nationalrail.co.uk/stations/BTE/details.html,1,,2,0,
BTF,BTF,Bottesford,52.94461,-0.79484,http://www.nationalrail.co.uk/stations/BTF/details.html,1,,2,0,
BTG,BTG,Barnt Green,52.36109,-1.99247,http://www.nationalrail.co.uk/stations/BTG/details.html,1,,2,1,
BTH,BTH,Bath Spa,51.37769,-2.35702,http://www.nationalrail.co.uk/stations/BTH/details.html,1,,1,2,
BTL,BTL,Batley,53.70994,-1.62295,http://www.nationalrail.co.uk/stations/BTL/details.html,1,,2,0,
BTN,BTN,Brighton,50.82900,-0.14128,http://www.nationalrail.co.uk/stations/BTN/details.html,1,,1,2,
BTO,BTO,Betchworth,51.24819,-0.26697,http://www.nationalrail.co.uk/stations/BTO/details.html,1,,2,0,
BTP,BTP,Braintree Freeport,51.86942,0.56843,http://www.nationalrail.co.uk/stations/BTP/details.html,1,,1,0,
BTR,BTR,Braintree,51.87539,0.55669,http://www.nationalrail.co.uk/stations/BTR/details.html,1,,1,0,
BTS,BTS,Burntisland,56.05708,-3.23320,http://www.nationalrail.co.uk/stations/BTS/details.html,1,,2,0,
BTT,BTT,Battersby,54.45768,-1.09297,http://www.nationalrail.co.uk/stations/BTT/details.html,1,,2,0,
BTY,BTY,Bentley (Hants),51.18123,-0.86813,http://www.nationalrail.co.uk/stations/BTY/details.html,1,,2,0,
BUB,BUB,Burnley Barracks,53.79088,-2.25809,http://www.nationalrail.co.uk/stations/BUB/details.html,1,,1,0,
BUC,BUC,Buckenham,52.59774,1.47033,http://www.nationalrail.co.uk/stations/BUC/details.html,1,,1,0,
BUD,BUD,Burneside (Cumbria),54.35498,-2.76668,http://www.nationalrail.co.uk/stations/BUD/details.html,1,,2,0,
BUE,BUE,Bures,51.97116,0.76914,http://www.nationalrail.co.uk/stations/BUE/details.html,1,,1,0,
BUG,BUG,Burgess Hill,50.95366,-0.12741,http://www.nationalrail.co.uk/stations/BUG/details.html,1,,1,2,
BUH,BUH,Brough,53.72696,-0.57872,http://www.nationalrail.co.uk/stations/BUH/details.html,1,,1,1,
BUI,BUI,Burnside (Strathclyde),55.81693,-4.20239,http://www.nationalrail.co.uk/stations/BUI/details.html,1,,2,1,
BUJ,BUJ,Burton Joyce,52.98344,-1.04088,http://www.nationalrail.co.uk/stations/BUJ/details.html,1,,1,0,
BUK,BUK,Bucknell,52.35738,-2.94738,http://www.nationalrail.co.uk/stations/BUK/details.html,1,,2,0,
BUL,BUL,Butlers Lane,52.59247,-1.83802,http://www.nationalrail.co.uk/stations/BUL/details.html,1,,2,0,
BUO,BUO,Bursledon,50.88369,-1.30503,http://www.nationalrail.co.uk/stations/BUO/details.html,1,,2,0,
BUS,BUS,Busby,55.78034,-4.26220,http://www.nationalrail.co.uk/stations/BUS/details.html,1,,2,0,
BUT,BUT,Burton-on-Trent,52.80582,-1.64246,http://www.nationalrail.co.uk/stations/BUT/details.html,1,,2,2,
BUU,BUU,Burnham-on-Crouch,51.63366,0.81403,http://www.nationalrail.co.uk/stations/BUU/details.html,1,,1,0,
BUW,BUW,Burley-in-Wharfedale,53.90815,-1.75337,http://www.nationalrail.co.uk/stations/BUW/details.html,1,,2,0,
BUX,BUX,Buxton,53.26072,-1.91286,http://www.nationalrail.co.uk/stations/BUX/details.html,1,,1,0,
BUY,BUY,Burley Park,53.81203,-1.57777,http://www.nationalrail.co.uk/stations/BUY/details.html,1,,1,0,
BVD,BVD,Belvedere,51.49212,0.15229,http://www.nationalrail.co.uk/stations/BVD/details.html,1,,1,0,
BWB,BWB,Bow Brickhill,52.00430,-0.69608,http://www.nationalrail.co.uk/stations/BWB/details.html,1,,1,0,
BWD,BWD,Birchwood,53.41272,-2.52531,http://www.nationalrail.co.uk/stations/BWD/details.html,1,,2,0,
BWG,BWG,Bowling,55.93108,-4.49384,http://www.nationalrail.co.uk/stations/BWG/details.html,1,,2,0,
BWK,BWK,Berwick-upon-Tweed,55.77434,-2.01097,http://www.nationalrail.co.uk/stations/BWK/details.html,1,,1,2,
BWN,BWN,Bloxwich North,52.62544,-2.01768,http://www.nationalrail.co.uk/stations/BWN/details.html,1,,1,0,
BWO,BWO,Bricket Wood,51.70543,-0.35911,http://www.nationalrail.co.uk/stations/BWO/details.html,1,,1,0,
BWS,BWS,Barrow upon Soar,52.74934,-1.14484,http://www.nationalrail.co.uk/stations/BWS/details.html,1,,2,0,
BWT,BWT,Bridgwater,51.12786,-2.99041,http://www.nationalrail.co.uk/stations/BWT/details.html,1,,2,2,
BXB,BXB,Broxbourne,51.74691,-0.01109,http://www.nationalrail.co.uk/stations/BXB/details.html,1,,1,1,
BXD,BXD,Buxted,50.99001,0.13144,http://www.nationalrail.co.uk/stations/BXD/details.html,1,,1,0,
BXH,BXH,Bexleyheath,51.46350,0.13373,http://www.nationalrail.co.uk/stations/BXH/details.html,1,,1,0,
BXW,BXW,Box Hill & Westhumble,51.25401,-0.32849,http://www.nationalrail.co.uk/stations/BXW/details.html,1,,2,0,
BXX,BXX,Boxhill - Burford Bridge Hotel,51.25416,-0.32298,,1,,0,1,
BXY,BXY,Bexley,51.44022,0.14790,http://www.nationalrail.co.uk/stations/BXY/details.html,1,,2,0,
BYA,BYA,Berney Arms,52.58979,1.63038,http://www.nationalrail.co.uk/stations/BYA/details.html,1,,1,0,
BYB,BYB,Blythe Bridge,52.96814,-2.06696,http://www.nationalrail.co.uk/stations/BYB/details.html,1,,1,1,
BYC,BYC,Betws-y-Coed,53.09207,-3.80086,http://www.nationalrail.co.uk/stations/BYC/details.html,1,,2,1,
BYD,BYD,Barry Docks,51.40244,-3.26070,http://www.nationalrail.co.uk/stations/BYD/details.html,1,,2,0,
BYE,BYE,Bynea,51.67203,-4.09888,http://www.nationalrail.co.uk/stations/BYE/details.html,1,,2,0,
BYF,BYF,Broughty Ferry,56.46716,-2.87315,http://www.nationalrail.co.uk/stations/BYF/details.html,1,,1,0,
BYI,BYI,Barry Island,51.39241,-3.27336,http://www.nationalrail.co.uk/stations/BYI/details.html,1,,1,0,
BYK,BYK,Bentley (S Yorks),53.54394,-1.15095,http://www.nationalrail.co.uk/stations/BYK/details.html,1,,1,0,
BYL,BYL,Barry Links,56.49315,-2.74544,http://www.nationalrail.co.uk/stations/BYL/details.html,1,,2,0,
BYM,BYM,Burnley Manchester Road,53.78497,-2.24887,http://www.nationalrail.co.uk/stations/BYM/details.html,1,,1,1,
BYN,BYN,Bryn,53.49987,-2.64721,http://www.nationalrail.co.uk/stations/BYN/details.html,1,,2,0,
BYS,BYS,Braystones,54.43936,-3.54183,http://www.nationalrail.co.uk/stations/BYS/details.html,1,,2,0,
CAA,CAA,Coventry Arena,52.44773,-1.49412,,1,,0,0,
CAC,CAC,Caldercruix,55.88794,-3.88771,http://www.nationalrail.co.uk/stations/CAC/details.html,1,,1,0,
CAD,CAD,Cadoxton,51.41228,-3.24890,http://www.nationalrail.co.uk/stations/CAD/details.html,1,,2,0,
CAG,CAG,Carrbridge,57.27950,-3.82820,http://www.nationalrail.co.uk/stations/CAG/details.html,1,,2,0,
CAK,CAK,Cark,54.17795,-2.97406,http://www.nationalrail.co.uk/stations/CAK/details.html,1,,1,0,
CAM,CAM,Camberley,51.33633,-0.74427,http://www.nationalrail.co.uk/stations/CAM/details.html,1,,2,0,
CAN,CAN,Carnoustie,56.50056,-2.70660,http://www.nationalrail.co.uk/stations/CAN/details.html,1,,1,1,
CAO,CAO,Cannock,52.68616,-2.02215,http://www.nationalrail.co.uk/stations/CAO/details.html,1,,1,0,
CAR,CAR,Carlisle,54.89065,-2.93319,http://www.nationalrail.co.uk/stations/CAR/details.html,1,,2,3,
CAS,CAS,Castleton (Manchester),53.59185,-2.17823,http://www.nationalrail.co.uk/stations/CAS/details.html,1,,1,0,
CAT,CAT,Caterham,51.28214,-0.07831,http://www.nationalrail.co.uk/stations/CAT/details.html,1,,1,0,
CAU,CAU,Causeland,50.40569,-4.46645,http://www.nationalrail.co.uk/stations/CAU/details.html,1,,2,0,
CAY,CAY,Carntyne,55.85487,-4.17857,http://www.nationalrail.co.uk/stations/CAY/details.html,1,,2,0,
CBB,CBB,Carbis Bay,50.19705,-5.46326,http://www.nationalrail.co.uk/stations/CBB/details.html,1,,2,0,
CBC,CBC,Coatbridge Central,55.86251,-4.03190,http://www.nationalrail.co.uk/stations/CBC/details.html,1,,2,2,
CBD,CBD,Conon Bridge,57.56175,-4.44041,http://www.nationalrail.co.uk/stations/CBD/details.html,1,,1,0,
CBE,CBE,Canterbury East,51.27427,1.07597,http://www.nationalrail.co.uk/stations/CBE/details.html,1,,1,1,
CBG,CBG,Cambridge,52.19407,0.13746,http://www.nationalrail.co.uk/stations/CBG/details.html,1,,1,2,
CBH,CBH,Cambridge Heath (London),51.53197,-0.05728,http://www.nationalrail.co.uk/stations/CBH/details.html,1,,2,0,
CBK,CBK,Cranbrook,50.75009,-3.42042,,1,,0,0,
CBL,CBL,Cambuslang,55.81961,-4.17301,http://www.nationalrail.co.uk/stations/CBL/details.html,1,,1,1,
CBN,CBN,Camborne,50.21044,-5.29741,http://www.nationalrail.co.uk/stations/CBN/details.html,1,,1,0,
CBP,CBP,Castle Bar Park,51.52293,-0.33155,http://www.nationalrail.co.uk/stations/CBP/details.html,1,,2,0,
CBR,CBR,Cooksbridge,50.90376,-0.00920,http://www.nationalrail.co.uk/stations/CBR/details.html,1,,1,0,
CBS,CBS,Coatbridge Sunnyside,55.86683,-4.02829,http://www.nationalrail.co.uk/stations/CBS/details.html,1,,2,0,
CBW,CBW,Canterbury West,51.28427,1.07530,http://www.nationalrail.co.uk/stations/CBW/details.html,1,,1,1,
CBY,CBY,Charlbury,51.87243,-1.48969,http://www.nationalrail.co.uk/stations/CBY/details.html,1,,1,0,
CCC,CCC,Criccieth,52.91841,-4.23751,http://www.nationalrail.co.uk/stations/CCC/details.html,1,,1,0,
CCH,CCH,Chichester,50.83205,-0.78175,http://www.nationalrail.co.uk/stations/CCH/details.html,1,,1,2,
CCT,CCT,Cathcart,55.81767,-4.26054,http://www.nationalrail.co.uk/stations/CCT/details.html,1,,2,1,
CDB,CDB,Cardiff Bay,51.46711,-3.16640,http://www.nationalrail.co.uk/stations/CDB/details.html,1,,1,0,
CDD,CDD,Cardenden,56.14126,-3.26164,http://www.nationalrail.co.uk/stations/CDD/details.html,1,,2,0,
CDF,CDF,Cardiff Central,51.47603,-3.17930,http://www.nationalrail.co.uk/stations/CDF/details.html,1,,1,2,
CDI,CDI,Crediton,50.78330,-3.64678,http://www.nationalrail.co.uk/stations/CDI/details.html,1,,1,1,
CDN,CDN,Coulsdon Town,51.32204,-0.13446,http://www.nationalrail.co.uk/stations/CDN/details.html,1,,1,1,
CDO,CDO,Cardonald,55.85257,-4.34069,http://www.nationalrail.co.uk/stations/CDO/details.html,1,,2,0,
CDQ,CDQ,Cardiff Queen Street,51.48196,-3.17018,http://www.nationalrail.co.uk/stations/CDQ/details.html,1,,2,1,
CDR,CDR,Cardross,55.96038,-4.65307,http://www.nationalrail.co.uk/stations/CDR/details.html,1,,2,0,
CDS,CDS,Coulsdon South,51.31584,-0.13789,http://www.nationalrail.co.uk/stations/CDS/details.html,1,,2,0,
CDT,CDT,Caldicot,51.58479,-2.76057,http://www.nationalrail.co.uk/stations/CDT/details.html,1,,1,0,
CDU,CDU,Cam & Dursley,51.71762,-2.35908,http://www.nationalrail.co.uk/stations/CDU/details.html,1,,1,0,
CDY,CDY,Cartsdyke,55.94221,-4.73159,http://www.nationalrail.co.uk/stations/CDY/details.html,1,,2,0,
CEA,CEA,Cleland,55.80465,-3.91024,http://www.nationalrail.co.uk/stations/CEA/details.html,1,,2,0,
CED,CED,Cheddington,51.85792,-0.66215,http://www.nationalrail.co.uk/stations/CED/details.html,1,,2,0,
CEF,CEF,Chapel-en-le-Frith,53.31223,-1.91876,http://www.nationalrail.co.uk/stations/CEF/details.html,1,,1,0,
CEH,CEH,Coleshill Parkway,52.51653,-1.70818,http://www.nationalrail.co.uk/stations/CEH/details.html,1,,1,1,
CEL,CEL,Chelford,53.27031,-2.28058,http://www.nationalrail.co.uk/stations/CEL/details.html,1,,1,0,
CES,CES,Cressing,51.85234,0.57796,http://www.nationalrail.co.uk/stations/CES/details.html,1,,1,0,
CET,CET,Colchester Town,51.88646,0.90476,http://www.nationalrail.co.uk/stations/CET/details.html,1,,1,0,
CEY,CEY,Cononley,53.91757,-2.01207,http://www.nationalrail.co.uk/stations/CEY/details.html,1,,1,0,
CFB,CFB,Catford Bridge,51.44474,-0.02479,http://www.nationalrail.co.uk/stations/CFB/details.html,1,,1,2,
CFD,CFD,Castleford,53.72408,-1.35465,http://www.nationalrail.co.uk/stations/CFD/details.html,1,,1,1,
CFF,CFF,Croftfoot,55.81826,-4.22832,http://www.nationalrail.co.uk/stations/CFF/details.html,1,,2,0,
CFH,CFH,Chafford Hundred,51.48556,0.28745,http://www.nationalrail.co.uk/stations/CFH/details.html,1,,1,1,
CFL,CFL,Crossflatts,53.85847,-1.84489,http://www.nationalrail.co.uk/stations/CFL/details.html,1,,1,0,
CFN,CFN,Clifton Down,51.46454,-2.61174,http://www.nationalrail.co.uk/stations/CFN/details.html,1,,1,0,
CFO,CFO,Chalfont & Latimer,51.66811,-0.56053,http://www.nationalrail.co.uk/stations/CFO/details.html,1,,1,1,
CFR,CFR,Chandlers Ford,50.98368,-1.38517,http://www.nationalrail.co.uk/stations/CFR/details.html,1,,1,0,
CFT,CFT,Crofton Park,51.45519,-0.03650,http://www.nationalrail.co.uk/stations/CFT/details.html,1,,1,0,
CGD,CGD,Craigendoran,55.99480,-4.71124,http://www.nationalrail.co.uk/stations/CGD/details.html,1,,1,0,
CGM,CGM,Cottingham,53.78165,-0.40643,http://www.nationalrail.co.uk/stations/CGM/details.html,1,,2,0,
CGN,CGN,Cogan,51.44599,-3.18909,http://www.nationalrail.co.uk/stations/CGN/details.html,1,,2,1,
CGW,CGW,Caergwrle,53.10786,-3.03291,http://www.nationalrail.co.uk/stations/CGW/details.html,1,,2,0,
CHC,CHC,Charing Cross (Glasgow),55.86468,-4.26982,http://www.nationalrail.co.uk/stations/CHC/details.html,1,,2,0,
CHD,CHD,Chesterfield,53.23822,-1.42012,http://www.nationalrail.co.uk/stations/CHD/details.html,1,,1,2,
CHE,CHE,Cheam,51.35548,-0.21417,http://www.nationalrail.co.uk/stations/CHE/details.html,1,,1,0,
CHF,CHF,Church Fenton,53.82660,-1.22759,http://www.nationalrail.co.uk/stations/CHF/details.html,1,,2,1,
CHG,CHG,Charing (Kent),51.20810,0.79033,http://www.nationalrail.co.uk/stations/CHG/details.html,1,,2,0,
CHH,CHH,Christs Hospital,51.05069,-0.36356,http://www.nationalrail.co.uk/stations/CHH/details.html,1,,2,0,
CHI,CHI,Chingford,51.63309,0.00990,http://www.nationalrail.co.uk/stations/CHI/details.html,1,,1,1,
CHK,CHK,Chiswick,51.48114,-0.26784,http://www.nationalrail.co.uk/stations/CHK/details.html,1,,2,0,
CHL,CHL,Chilworth,51.21521,-0.52482,http://www.nationalrail.co.uk/stations/CHL/details.html,1,,2,0,
CHM,CHM,Chelmsford,51.73637,0.46857,http://www.nationalrail.co.uk/stations/CHM/details.html,1,,1,2,
CHN,CHN,Cheshunt,51.70288,-0.02396,http://www.nationalrail.co.uk/stations/CHN/details.html,1,,1,1,
CHO,CHO,Cholsey,51.57020,-1.15802,http://www.nationalrail.co.uk/stations/CHO/details.html,1,,2,0,
CHP,CHP,Chipstead,51.30928,-0.16950,http://www.nationalrail.co.uk/stations/CHP/details.html,1,,2,0,
CHR,CHR,Christchurch,50.73821,-1.78455,http://www.nationalrail.co.uk/stations/CHR/details.html,1,,2,0,
CHT,CHT,Chathill,55.53673,-1.70638,http://www.nationalrail.co.uk/stations/CHT/details.html,1,,1,0,
CHU,CHU,Cheadle Hulme,53.37593,-2.18830,http://www.nationalrail.co.uk/stations/CHU/details.html,1,,2,1,
CHW,CHW,Chalkwell,51.53872,0.67059,http://www.nationalrail.co.uk/stations/CHW/details.html,1,,2,0,
CHX,CHX,London Charing Cross,51.50803,-0.12480,http://www.nationalrail.co.uk/stations/CHX/details.html,1,,1,3,
CHY,CHY,Chertsey,51.38707,-0.50932,http://www.nationalrail.co.uk/stations/CHY/details.html,1,,2,0,
CIL,CIL,Chilham,51.24461,0.97590,http://www.nationalrail.co.uk/stations/CIL/details.html,1,,2,0,
CIM,CIM,Cilmeri,52.15053,-3.45654,http://www.nationalrail.co.uk/stations/CIM/details.html,1,,2,0,
CIR,CIR,Caledonian Road & Barnsbury,51.54304,-0.11673,http://www.nationalrail.co.uk/stations/CIR/details.html,1,,1,0,
CIT,CIT,Chislehurst,51.40556,0.05742,http://www.nationalrail.co.uk/stations/CIT/details.html,1,,2,1,
CKH,CKH,Corkerhill,55.83750,-4.33429,http://www.nationalrail.co.uk/stations/CKH/details.html,1,,1,0,
CKL,CKL,Corkickle,54.54168,-3.58216,http://www.nationalrail.co.uk/stations/CKL/details.html,1,,1,0,
CKN,CKN,Crewkerne,50.87354,-2.77850,http://www.nationalrail.co.uk/stations/CKN/details.html,1,,1,0,
CKS,CKS,Clarkston,55.78935,-4.27564,http://www.nationalrail.co.uk/stations/CKS/details.html,1,,2,0,
CKT,CKT,Crookston,55.84231,-4.36467,http://www.nationalrail.co.uk/stations/CKT/details.html,1,,1,0,
CKY,CKY,Crosskeys,51.62090,-3.12617,http://www.nationalrail.co.uk/stations/CKY/details.html,1,,1,0,
CLA,CLA,Clandon,51.26401,-0.50277,http://www.nationalrail.co.uk/stations/CLA/details.html,1,,2,1,
CLC,CLC,Castle Cary,51.09981,-2.52279,http://www.nationalrail.co.uk/stations/CLC/details.html,1,,2,2,
CLD,CLD,Chelsfield,51.35626,0.10907,http://www.nationalrail.co.uk/stations/CLD/details.html,1,,1,1,
CLE,CLE,Cleethorpes,53.56191,-0.02922,http://www.nationalrail.co.uk/stations/CLE/details.html,1,,1,0,
CLG,CLG,Claygate,51.36121,-0.34825,http://www.nationalrail.co.uk/stations/CLG/details.html,1,,2,0,
CLH,CLH,Clitheroe,53.87347,-2.39434,http://www.nationalrail.co.uk/stations/CLH/details.html,1,,1,0,
CLI,CLI,Clifton (Manchester),53.52249,-2.31475,http://www.nationalrail.co.uk/stations/CLI/details.html,1,,1,0,
CLJ,CLJ,Clapham Junction,51.46419,-0.17028,http://www.nationalrail.co.uk/stations/CLJ/details.html,1,,1,2,
CLK,CLK,Clock House,51.40859,-0.04066,http://www.nationalrail.co.uk/stations/CLK/details.html,1,,2,1,
CLL,CLL,Collington,50.83929,0.45786,http://www.nationalrail.co.uk/stations/CLL/details.html,1,,1,0,
CLM,CLM,Collingham,53.14409,-0.75039,http://www.nationalrail.co.uk/stations/CLM/details.html,1,,1,0,
CLN,CLN,Chapeltown,53.46234,-1.46628,http://www.nationalrail.co.uk/stations/CLN/details.html,1,,2,0,
CLP,CLP,Clapham High Street,51.46548,-0.13252,http://www.nationalrail.co.uk/stations/CLP/details.html,1,,2,0,
CLR,CLR,Clarbeston Road,51.85167,-4.88355,http://www.nationalrail.co.uk/stations/CLR/details.html,1,,2,1,
CLS,CLS,Chester-le-Street,54.85459,-1.57802,http://www.nationalrail.co.uk/stations/CLS/details.html,1,,1,0,
CLT,CLT,Clacton-on-Sea,51.79400,1.15409,http://www.nationalrail.co.uk/stations/CLT/details.html,1,,1,0,
CLU,CLU,Carluke,55.73126,-3.84892,http://www.nationalrail.co.uk/stations/CLU/details.html,1,,2,0,
CLV,CLV,Claverdon,52.27709,-1.69656,http://www.nationalrail.co.uk/stations/CLV/details.html,1,,1,0,
CLW,CLW,Chorleywood,51.65425,-0.51832,http://www.nationalrail.co.uk/stations/CLW/details.html,1,,1,0,
CLY,CLY,Chinley,53.34029,-1.94394,http://www.nationalrail.co.uk/stations/CLY/details.html,1,,2,2,
CMB,CMB,Cambridge North,52.22448,0.15848,,1,,0,0,
CMD,CMD,Camden Road,51.54179,-0.13870,http://www.nationalrail.co.uk/stations/CMD/details.html,1,,1,2,
CME,CME,Combe (Oxon),51.83259,-1.39407,http://www.nationalrail.co.uk/stations/CME/details.html,1,,2,0,
CMF,CMF,Cromford,53.11293,-1.54916,http://www.nationalrail.co.uk/stations/CMF/details.html,1,,2,0,
CMH,CMH,Cwmbach,51.70193,-3.41372,http://www.nationalrail.co.uk/stations/CMH/details.html,1,,1,0,
CML,CML,Carmyle,55.83434,-4.15818,http://www.nationalrail.co.uk/stations/CML/details.html,1,,1,0,
CMN,CMN,Carmarthen,51.85335,-4.30596,http://www.nationalrail.co.uk/stations/CMN/details.html,1,,2,2,
CMO,CMO,Camelon,56.00609,-3.81761,http://www.nationalrail.co.uk/stations/CMO/details.html,1,,1,1,
CMR,CMR,Cromer,52.93008,1.29282,http://www.nationalrail.co.uk/stations/CMR/details.html,1,,1,1,
CMY,CMY,Crossmyloof,55.83395,-4.28432,http://www.nationalrail.co.uk/stations/CMY/details.html,1,,2,0,
CNE,CNE,Colne,53.85474,-2.18186,http://www.nationalrail.co.uk/stations/CNE/details.html,1,,1,0,
CNF,CNF,Carnforth,54.12968,-2.77123,http://www.nationalrail.co.uk/stations/CNF/details.html,1,,1,1,
CNG,CNG,Congleton,53.15785,-2.19258,http://www.nationalrail.co.uk/stations/CNG/details.html,1,,1,1,
CNL,CNL,Canley,52.39924,-1.54757,http://www.nationalrail.co.uk/stations/CNL/details.html,1,,2,0,
CNM,CNM,Cheltenham Spa,51.89740,-2.09962,http://www.nationalrail.co.uk/stations/CNM/details.html,1,,1,2,
CNN,CNN,Canonbury,51.54873,-0.09219,http://www.nationalrail.co.uk/stations/CNN/details.html,1,,1,1,
CNO,CNO,Chetnole,50.86636,-2.57293,http://www.nationalrail.co.uk/stations/CNO/details.html,1,,2,0,
CNP,CNP,Conway Park,53.39336,-3.02267,http://www.nationalrail.co.uk/stations/CNP/details.html,1,,1,0,
CNR,CNR,Crianlarich,56.39048,-4.61843,http://www.nationalrail.co.uk/stations/CNR/details.html,1,,2,1,
CNS,CNS,Conisbrough,53.48931,-1.23433,http://www.nationalrail.co.uk/stations/CNS/details.html,1,,1,0,
CNW,CNW,Conwy,53.28010,-3.83052,http://www.nationalrail.co.uk/stations/CNW/details.html,1,,1,0,
CNY,CNY,Cantley,52.57875,1.51341,http://www.nationalrail.co.uk/stations/CNY/details.html,1,,1,0,
COA,COA,Coatdyke,55.86434,-4.00498,http://www.nationalrail.co.uk/stations/COA/details.html,1,,2,0,
COB,COB,Cooden Beach,50.83337,0.42686,http://www.nationalrail.co.uk/stations/COB/details.html,1,,1,0,
COE,COE,Coombe Junction Halt (Rail Station),50.44592,-4.48185,http://www.nationalrail.co.uk/stations/COE/details.html,1,,1,0,
COH,COH,Crowborough,51.04638,0.18801,http://www.nationalrail.co.uk/stations/COH/details.html,1,,2,0,
COI,COI,Crosshill,55.83329,-4.25681,http://www.nationalrail.co.uk/stations/COI/details.html,1,,2,0,
COL,COL,Colchester,51.90071,0.89260,http://www.nationalrail.co.uk/stations/COL/details.html,1,,1,2,
COM,COM,Commondale,54.48127,-0.97515,http://www.nationalrail.co.uk/stations/COM/details.html,1,,2,0,
CON,CON,Connel Ferry,56.45235,-5.38544,http://www.nationalrail.co.uk/stations/CON/details.html,1,,1,0,
COO,COO,Cookham,51.55746,-0.72208,http://www.nationalrail.co.uk/stations/COO/details.html,1,,1,0,
COP,COP,Copplestone,50.81447,-3.75157,http://www.nationalrail.co.uk/stations/COP/details.html,1,,2,0,
COR,COR,Corby,52.48885,-0.68834,http://www.nationalrail.co.uk/stations/COR/details.html,1,,1,0,
COS,COS,Cosford,52.64483,-2.30027,http://www.nationalrail.co.uk/stations/COS/details.html,1,,2,1,
COT,COT,Cottingley,53.76782,-1.58771,http://www.nationalrail.co.uk/stations/COT/details.html,1,,2,0,
COV,COV,Coventry,52.40081,-1.51346,http://www.nationalrail.co.uk/stations/COV/details.html,1,,1,2,
COW,COW,Cowdenbeath,56.11209,-3.34319,http://www.nationalrail.co.uk/stations/COW/details.html,1,,2,0,
COY,COY,Coryton,51.52044,-3.23182,http://www.nationalrail.co.uk/stations/COY/details.html,1,,1,0,
CPA,CPA,Corpach,56.84283,-5.12196,http://www.nationalrail.co.uk/stations/CPA/details.html,1,,2,0,
CPH,CPH,Caerphilly,51.57158,-3.21848,http://www.nationalrail.co.uk/stations/CPH/details.html,1,,1,1,
CPK,CPK,Carpenders Park,51.62835,-0.38594,http://www.nationalrail.co.uk/stations/CPK/details.html,1,,1,0,
CPM,CPM,Chippenham,51.46249,-2.11539,http://www.nationalrail.co.uk/stations/CPM/details.html,1,,2,1,
CPN,CPN,Chapelton (Devon),51.01654,-4.02472,http://www.nationalrail.co.uk/stations/CPN/details.html,1,,2,0,
CPT,CPT,Clapton,51.56164,-0.05702,http://www.nationalrail.co.uk/stations/CPT/details.html,1,,2,1,
CPU,CPU,Capenhurst,53.26017,-2.94228,http://www.nationalrail.co.uk/stations/CPU/details.html,1,,2,0,
CPW,CPW,Chepstow,51.64018,-2.67191,http://www.nationalrail.co.uk/stations/CPW/details.html,1,,2,0,
CPY,CPY,Clapham (N Yorks),54.10539,-2.41038,http://www.nationalrail.co.uk/stations/CPY/details.html,1,,2,0,
CRA,CRA,Cradley Heath,52.46965,-2.09049,http://www.nationalrail.co.uk/stations/CRA/details.html,1,,1,0,
CRB,CRB,Corbridge,54.96626,-2.01840,http://www.nationalrail.co.uk/stations/CRB/details.html,1,,2,0,
CRD,CRD,Chester Road,52.53565,-1.83248,http://www.nationalrail.co.uk/stations/CRD/details.html,1,,1,0,
CRE,CRE,Crewe,53.08962,-2.43297,http://www.nationalrail.co.uk/stations/CRE/details.html,1,,1,3,
CRF,CRF,Carfin,55.80734,-3.95625,http://www.nationalrail.co.uk/stations/CRF/details.html,1,,2,0,
CRG,CRG,Cross Gates,53.80491,-1.45158,http://www.nationalrail.co.uk/stations/CRG/details.html,1,,1,0,
CRH,CRH,Crouch Hill,51.57130,-0.11715,http://www.nationalrail.co.uk/stations/CRH/details.html,1,,2,0,
CRI,CRI,Cricklewood,51.55845,-0.21268,http://www.nationalrail.co.uk/stations/CRI/details.html,1,,2,2,
CRK,CRK,Chirk,52.93309,-3.06564,http://www.nationalrail.co.uk/stations/CRK/details.html,1,,2,0,
CRL,CRL,Chorley,53.65254,-2.62684,http://www.nationalrail.co.uk/stations/CRL/details.html,1,,1,0,
CRM,CRM,Cramlington,55.08777,-1.59859,http://www.nationalrail.co.uk/stations/CRM/details.html,1,,1,0,
CRN,CRN,Crowthorne,51.36673,-0.81927,http://www.nationalrail.co.uk/stations/CRN/details.html,1,,2,0,
CRO,CRO,Croy,55.95568,-4.03598,http://www.nationalrail.co.uk/stations/CRO/details.html,1,,2,1,
CRR,CRR,Corrour,56.76021,-4.69060,http://www.nationalrail.co.uk/stations/CRR/details.html,1,,2,0,
CRS,CRS,Carstairs,55.69105,-3.66847,http://www.nationalrail.co.uk/stations/CRS/details.html,1,,2,3,
CRT,CRT,Chartham,51.25727,1.01804,http://www.nationalrail.co.uk/stations/CRT/details.html,1,,1,0,
CRV,CRV,Craven Arms,52.44254,-2.83742,http://www.nationalrail.co.uk/stations/CRV/details.html,1,,2,2,
CRW,CRW,Crawley,51.11221,-0.18667,http://www.nationalrail.co.uk/stations/CRW/details.html,1,,1,2,
CRY,CRY,Crayford,51.44828,0.17894,http://www.nationalrail.co.uk/stations/CRY/details.html,1,,1,1,
CSA,CSA,Cosham,50.84192,-1.06733,http://www.nationalrail.co.uk/stations/CSA/details.html,1,,2,1,
CSB,CSB,Carshalton Beeches,51.35741,-0.16980,http://www.nationalrail.co.uk/stations/CSB/details.html,1,,2,2,
CSD,CSD,Cobham & Stoke d'Abernon,51.31810,-0.38935,http://www.nationalrail.co.uk/stations/CSD/details.html,1,,2,0,
CSG,CSG,Cressington,53.35875,-2.91200,http://www.nationalrail.co.uk/stations/CSG/details.html,1,,2,0,
CSH,CSH,Carshalton,51.36845,-0.16637,http://www.nationalrail.co.uk/stations/CSH/details.html,1,,2,2,
CSK,CSK,Calstock,50.49780,-4.20899,http://www.nationalrail.co.uk/stations/CSK/details.html,1,,1,0,
CSL,CSL,Codsall,52.62729,-2.20176,http://www.nationalrail.co.uk/stations/CSL/details.html,1,,2,1,
CSM,CSM,Castleton Moor,54.46714,-0.94665,http://www.nationalrail.co.uk/stations/CSM/details.html,1,,1,0,
CSN,CSN,Chessington North,51.36404,-0.30070,http://www.nationalrail.co.uk/stations/CSN/details.html,1,,2,0,
CSO,CSO,Croston,53.66756,-2.77775,http://www.nationalrail.co.uk/stations/CSO/details.html,1,,1,0,
CSR,CSR,Chassen Road,53.44616,-2.36823,http://www.nationalrail.co.uk/stations/CSR/details.html,1,,1,0,
CSS,CSS,Chessington South,51.35655,-0.30816,http://www.nationalrail.co.uk/stations/CSS/details.html,1,,2,0,
CST,CST,London Cannon Street,51.51138,-0.09029,http://www.nationalrail.co.uk/stations/CST/details.html,1,,1,3,
CSW,CSW,Chestfield & Swalecliffe,51.36024,1.06693,http://www.nationalrail.co.uk/stations/CSW/details.html,1,,2,0,
CSY,CSY,Coseley,52.54508,-2.08578,http://www.nationalrail.co.uk/stations/CSY/details.html,1,,1,0,
CTE,CTE,Chatelherault,55.76522,-4.00467,http://www.nationalrail.co.uk/stations/CTE/details.html,1,,1,0,
CTF,CTF,Catford,51.44441,-0.02632,http://www.nationalrail.co.uk/stations/CTF/details.html,1,,2,2,
CTH,CTH,Chadwell Heath,51.56804,0.12896,http://www.nationalrail.co.uk/stations/CTH/details.html,1,,1,1,
CTK,CTK,City Thameslink,51.51394,-0.10359,http://www.nationalrail.co.uk/stations/CTK/details.html,1,,1,0,
CTL,CTL,Cattal,53.99744,-1.32053,http://www.nationalrail.co.uk/stations/CTL/details.html,1,,1,0,
CTM,CTM,Chatham,51.38038,0.52115,http://www.nationalrail.co.uk/stations/CTM/details.html,1,,1,1,
CTN,CTN,Charlton,51.48681,0.03126,http://www.nationalrail.co.uk/stations/CTN/details.html,1,,1,1,
CTO,CTO,Carlton,52.96509,-1.07865,http://www.nationalrail.co.uk/stations/CTO/details.html,1,,1,1,
CTR,CTR,Chester,53.19670,-2.87959,http://www.nationalrail.co.uk/stations/CTR/details.html,1,,1,2,
CTT,CTT,Church Stretton,52.53742,-2.80369,http://www.nationalrail.co.uk/stations/CTT/details.html,1,,1,0,
CTW,CTW,Church & Oswaldtwistle,53.75052,-2.39121,http://www.nationalrail.co.uk/stations/CTW/details.html,1,,2,0,
CUA,CUA,Culrain,57.91951,-4.40427,http://www.nationalrail.co.uk/stations/CUA/details.html,1,,1,0,
CUB,CUB,Cumbernauld,55.94203,-3.98033,http://www.nationalrail.co.uk/stations/CUB/details.html,1,,2,1,
CUD,CUD,Cuddington,53.23992,-2.59931,http://www.nationalrail.co.uk/stations/CUD/details.html,1,,2,0,
CUF,CUF,Cuffley,51.70872,-0.10978,http://www.nationalrail.co.uk/stations/CUF/details.html,1,,2,0,
CUH,CUH,Curriehill,55.90057,-3.31875,http://www.nationalrail.co.uk/stations/CUH/details.html,1,,2,0,
CUM,CUM,Culham,51.65379,-1.23651,http://www.nationalrail.co.uk/stations/CUM/details.html,1,,2,0,
CUP,CUP,Cupar,56.31699,-3.00876,http://www.nationalrail.co.uk/stations/CUP/details.html,1,,1,0,
CUW,CUW,Clunderwen,51.84054,-4.73184,http://www.nationalrail.co.uk/stations/CUW/details.html,1,,1,0,
CUX,CUX,Cuxton,51.37393,0.46171,http://www.nationalrail.co.uk/stations/CUX/details.html,1,,1,0,
CWB,CWB,Colwyn Bay,53.29636,-3.72542,http://www.nationalrail.co.uk/stations/CWB/details.html,1,,1,0,
CWC,CWC,Chappel & Wakes Colne,51.92591,0.75850,http://www.nationalrail.co.uk/stations/CWC/details.html,1,,1,1,
CWD,CWD,Creswell (Derbys),53.26411,-1.21639,http://www.nationalrail.co.uk/stations/CWD/details.html,1,,1,0,
CWE,CWE,Crowle,53.58973,-0.81736,http://www.nationalrail.co.uk/stations/CWE/details.html,1,,1,0,
CWH,CWH,Crews Hill,51.68449,-0.10689,http://www.nationalrail.co.uk/stations/CWH/details.html,1,,2,0,
CWL,CWL,Colwall,52.07987,-2.35695,http://www.nationalrail.co.uk/stations/CWL/details.html,1,,1,0,
CWM,CWM,Cwmbran,51.65659,-3.01620,http://www.nationalrail.co.uk/stations/CWM/details.html,1,,2,0,
CWN,CWN,Cowden,51.15564,0.11003,http://www.nationalrail.co.uk/stations/CWN/details.html,1,,2,0,
CWS,CWS,Caersws,52.51612,-3.43250,http://www.nationalrail.co.uk/stations/CWS/details.html,1,,1,0,
CWU,CWU,Crowhurst,50.88858,0.50134,http://www.nationalrail.co.uk/stations/CWU/details.html,1,,2,0,
CYB,CYB,Cefn-y-Bedd,53.09880,-3.03105,http://www.nationalrail.co.uk/stations/CYB/details.html,1,,1,0,
CYK,CYK,Clydebank,55.90069,-4.40441,http://www.nationalrail.co.uk/stations/CYK/details.html,1,,1,0,
CYN,CYN,Cynghordy,52.05150,-3.74821,http://www.nationalrail.co.uk/stations/CYN/details.html,1,,2,0,
CYP,CYP,Crystal Palace,51.41811,-0.07261,http://www.nationalrail.co.uk/stations/CYP/details.html,1,,1,2,
CYS,CYS,Cathays,51.48890,-3.17868,http://www.nationalrail.co.uk/stations/CYS/details.html,1,,2,0,
CYT,CYT,Cherry Tree,53.73287,-2.51838,http://www.nationalrail.co.uk/stations/CYT/details.html,1,,1,0,
DAG,DAG,Dalgety Bay,56.04209,-3.36772,http://www.nationalrail.co.uk/stations/DAG/details.html,1,,1,0,
DAK,DAK,Dalmarnock,55.84209,-4.21771,http://www.nationalrail.co.uk/stations/DAK/details.html,1,,1,0,
DAL,DAL,Dalmally,56.40119,-4.98355,http://www.nationalrail.co.uk/stations/DAL/details.html,1,,2,0,
DAM,DAM,Dalmeny,55.98632,-3.38162,http://www.nationalrail.co.uk/stations/DAM/details.html,1,,1,1,
DAN,DAN,Darnall,53.38458,-1.41257,http://www.nationalrail.co.uk/stations/DAN/details.html,1,,1,0,
DAR,DAR,Darlington,54.52045,-1.54732,http://www.nationalrail.co.uk/stations/DAR/details.html,1,,1,2,
DAT,DAT,Datchet,51.48308,-0.57942,http://www.nationalrail.co.uk/stations/DAT/details.html,1,,2,0,
DBC,DBC,Dumbarton Central,55.94665,-4.56692,http://www.nationalrail.co.uk/stations/DBC/details.html,1,,1,1,
DBD,DBD,Denby Dale,53.57263,-1.66321,http://www.nationalrail.co.uk/stations/DBD/details.html,1,,2,0,
DBE,DBE,Dumbarton East,55.94225,-4.55414,http://www.nationalrail.co.uk/stations/DBE/details.html,1,,2,0,
DBG,DBG,Mottisfont & Dunbridge,51.03393,-1.54708,http://www.nationalrail.co.uk/stations/DBG/details.html,1,,1,0,
DBL,DBL,Dunblane,56.18589,-3.96549,http://www.nationalrail.co.uk/stations/DBL/details.html,1,,2,1,
DBR,DBR,Derby Road (Ipswich),52.05055,1.18264,http://www.nationalrail.co.uk/stations/DBR/details.html,1,,1,0,
DBY,DBY,Derby,52.91655,-1.46335,http://www.nationalrail.co.uk/stations/DBY/details.html,1,,1,2,
DCG,DCG,Duncraig,57.33700,-5.63713,http://www.nationalrail.co.uk/stations/DCG/details.html,1,,2,0,
DCH,DCH,Dorchester South,50.70929,-2.43724,http://www.nationalrail.co.uk/stations/DCH/details.html,1,,2,1,
DCT,DCT,Danescourt,51.50051,-3.23392,http://www.nationalrail.co.uk/stations/DCT/details.html,1,,1,0,
DCW,DCW,Dorchester West,50.71095,-2.44254,http://www.nationalrail.co.uk/stations/DCW/details.html,1,,2,1,
DDG,DDG,Dorridge,52.37207,-1.75290,http://www.nationalrail.co.uk/stations/DDG/details.html,1,,2,1,
DDK,DDK,Dagenham Dock,51.52609,0.14610,http://www.nationalrail.co.uk/stations/DDK/details.html,1,,1,0,
DDP,DDP,Dudley Port,52.52465,-2.04948,http://www.nationalrail.co.uk/stations/DDP/details.html,1,,2,0,
DEA,DEA,Deal,51.22304,1.39885,http://www.nationalrail.co.uk/stations/DEA/details.html,1,,1,1,
DEE,DEE,Dundee,56.45649,-2.97120,http://www.nationalrail.co.uk/stations/DEE/details.html,1,,1,2,
DEN,DEN,Dean,51.04246,-1.63487,http://www.nationalrail.co.uk/stations/DEN/details.html,1,,1,0,
DEP,DEP,Deptford,51.47885,-0.02627,http://www.nationalrail.co.uk/stations/DEP/details.html,1,,1,0,
DEW,DEW,Dewsbury,53.69213,-1.63311,http://www.nationalrail.co.uk/stations/DEW/details.html,1,,2,1,
DFD,DFD,Dartford,51.44737,0.21925,http://www.nationalrail.co.uk/stations/DFD/details.html,1,,1,1,
DFE,DFE,Dunfermline Town,56.06819,-3.45253,http://www.nationalrail.co.uk/stations/DFE/details.html,1,,2,1,
DFI,DFI,Duffield,52.98840,-1.48597,http://www.nationalrail.co.uk/stations/DFI/details.html,1,,2,1,
DFL,DFL,Dunfermline Queen Margaret,56.08057,-3.42147,http://www.nationalrail.co.uk/stations/DFL/details.html,1,,1,1,
DFR,DFR,Drumfrochar,55.94125,-4.77477,http://www.nationalrail.co.uk/stations/DFR/details.html,1,,1,0,
DGC,DGC,Denham Golf Club,51.58060,-0.51779,http://www.nationalrail.co.uk/stations/DGC/details.html,1,,1,0,
DGL,DGL,Dingle Road,51.44005,-3.18059,http://www.nationalrail.co.uk/stations/DGL/details.html,1,,1,0,
DGT,DGT,Deansgate,53.47418,-2.25105,http://www.nationalrail.co.uk/stations/DGT/details.html,1,,1,2,
DGY,DGY,Deganwy,53.29475,-3.83339,http://www.nationalrail.co.uk/stations/DGY/details.html,1,,1,0,
DHM,DHM,Durham,54.77939,-1.58175,http://www.nationalrail.co.uk/stations/DHM/details.html,1,,2,1,
DHN,DHN,Deighton,53.66848,-1.75190,http://www.nationalrail.co.uk/stations/DHN/details.html,1,,1,0,
DID,DID,Didcot Parkway,51.61095,-1.24289,http://www.nationalrail.co.uk/stations/DID/details.html,1,,2,2,
DIG,DIG,Digby & Sowton,50.71399,-3.47356,http://www.nationalrail.co.uk/stations/DIG/details.html,1,,1,0,
DIN,DIN,Dingwall,57.59424,-4.42220,http://www.nationalrail.co.uk/stations/DIN/details.html,1,,2,1,
DIS,DIS,Diss,52.37366,1.12370,http://www.nationalrail.co.uk/stations/DIS/details.html,1,,2,2,
DKD,DKD,Dunkeld & Birnam,56.55706,-3.57840,http://www.nationalrail.co.uk/stations/DKD/details.html,1,,2,0,
DKG,DKG,Dorking,51.24093,-0.32425,http://www.nationalrail.co.uk/stations/DKG/details.html,1,,1,2,
DKT,DKT,Dorking West,51.23623,-0.33998,http://www.nationalrail.co.uk/stations/DKT/details.html,1,,2,0,
DLG,DLG,Dolgarrog,53.18635,-3.82264,http://www.nationalrail.co.uk/stations/DLG/details.html,1,,2,0,
DLH,DLH,Doleham,50.91859,0.60997,http://www.nationalrail.co.uk/stations/DLH/details.html,1,,1,0,
DLJ,DLJ,Dalston Junction,51.54612,-0.07514,http://www.nationalrail.co.uk/stations/DLJ/details.html,1,,1,1,
DLK,DLK,Dalston Kingsland,51.54815,-0.07570,http://www.nationalrail.co.uk/stations/DLK/details.html,1,,2,1,
DLM,DLM,Delamere,53.22878,-2.66656,http://www.nationalrail.co.uk/stations/DLM/details.html,1,,1,0,
DLR,DLR,Dalreoch,55.94741,-4.57786,http://www.nationalrail.co.uk/stations/DLR/details.html,1,,2,1,
DLS,DLS,Dalston (Cumbria),54.84618,-2.98885,http://www.nationalrail.co.uk/stations/DLS/details.html,1,,1,0,
DLT,DLT,Dalton,54.15424,-3.17900,http://www.nationalrail.co.uk/stations/DLT/details.html,1,,1,0,
DLW,DLW,Dalwhinnie,56.93517,-4.24620,http://www.nationalrail.co.uk/stations/DLW/details.html,1,,2,0,
DLY,DLY,Dalry,55.70622,-4.71108,http://www.nationalrail.co.uk/stations/DLY/details.html,1,,2,0,
DMC,DMC,Drumchapel,55.90481,-4.36288,http://www.nationalrail.co.uk/stations/DMC/details.html,1,,2,0,
DMF,DMF,Dumfries,55.07256,-3.60430,http://www.nationalrail.co.uk/stations/DMF/details.html,1,,1,2,
DMG,DMG,Dinas (Rhondda),51.61783,-3.43754,http://www.nationalrail.co.uk/stations/DMG/details.html,1,,1,0,
DMH,DMH,Dilton Marsh,51.24899,-2.20792,http://www.nationalrail.co.uk/stations/DMH/details.html,1,,1,0,
DMK,DMK,Denmark Hill,51.46820,-0.08936,http://www.nationalrail.co.uk/stations/DMK/details.html,1,,2,2,
DMP,DMP,Dumpton Park,51.34570,1.42582,http://www.nationalrail.co.uk/stations/DMP/details.html,1,,2,0,
DMR,DMR,Dalmuir,55.91193,-4.42668,http://www.nationalrail.co.uk/stations/DMR/details.html,1,,1,1,
DMS,DMS,Dormans,51.15579,-0.00431,http://www.nationalrail.co.uk/stations/DMS/details.html,1,,2,0,
DMY,DMY,Drumry,55.90459,-4.38547,http://www.nationalrail.co.uk/stations/DMY/details.html,1,,1,0,
DND,DND,Dinsdale,54.51473,-1.46706,http://www.nationalrail.co.uk/stations/DND/details.html,1,,1,0,
DNG,DNG,Dunton Green,51.29649,0.17094,http://www.nationalrail.co.uk/stations/DNG/details.html,1,,2,0,
DNL,DNL,Dunlop,55.71188,-4.53239,http://www.nationalrail.co.uk/stations/DNL/details.html,1,,1,0,
DNM,DNM,Denham,51.57884,-0.49744,http://www.nationalrail.co.uk/stations/DNM/details.html,1,,1,1,
DNO,DNO,Dunrobin Castle,57.98553,-3.94892,http://www.nationalrail.co.uk/stations/DNO/details.html,1,,1,0,
DNS,DNS,Dinas Powys,51.43166,-3.21835,http://www.nationalrail.co.uk/stations/DNS/details.html,1,,1,0,
DNT,DNT,Dent,54.28241,-2.36360,http://www.nationalrail.co.uk/stations/DNT/details.html,1,,2,0,
DNY,DNY,Danby,54.46615,-0.91096,http://www.nationalrail.co.uk/stations/DNY/details.html,1,,1,0,
DOC,DOC,Dockyard (Plymouth),50.38217,-4.17590,http://www.nationalrail.co.uk/stations/DOC/details.html,1,,2,0,
DOD,DOD,Dodworth,53.54432,-1.53169,http://www.nationalrail.co.uk/stations/DOD/details.html,1,,2,0,
DOL,DOL,Dolau,52.29535,-3.26362,http://www.nationalrail.co.uk/stations/DOL/details.html,1,,2,0,
DON,DON,Doncaster,53.52215,-1.13985,http://www.nationalrail.co.uk/stations/DON/details.html,1,,1,2,
DOR,DOR,Dore & Totley,53.32763,-1.51530,http://www.nationalrail.co.uk/stations/DOR/details.html,1,,1,1,
DOT,DOT,Dunston,54.95006,-1.64204,http://www.nationalrail.co.uk/stations/DOT/details.html,1,,1,0,
DOW,DOW,Downham Market,52.60411,0.36568,http://www.nationalrail.co.uk/stations/DOW/details.html,1,,1,0,
DPD,DPD,Dorking Deepdene,51.23880,-0.32464,http://www.nationalrail.co.uk/stations/DPD/details.html,1,,2,2,
DPT,DPT,Devonport,50.37853,-4.17071,http://www.nationalrail.co.uk/stations/DPT/details.html,1,,2,0,
DRF,DRF,Driffield,54.00153,-0.43466,http://www.nationalrail.co.uk/stations/DRF/details.html,1,,1,1,
DRG,DRG,Drayton Green,51.51662,-0.33019,http://www.nationalrail.co.uk/stations/DRG/details.html,1,,2,0,
DRI,DRI,Drigg,54.37696,-3.44341,http://www.nationalrail.co.uk/stations/DRI/details.html,1,,2,0,
DRM,DRM,Drem,56.00512,-2.78605,http://www.nationalrail.co.uk/stations/DRM/details.html,1,,1,1,
DRN,DRN,Duirinish,57.31998,-5.69132,http://www.nationalrail.co.uk/stations/DRN/details.html,1,,1,0,
DRO,DRO,Dronfield,53.30137,-1.46878,http://www.nationalrail.co.uk/stations/DRO/details.html,1,,1,0,
DRT,DRT,Darton,53.58837,-1.53166,http://www.nationalrail.co.uk/stations/DRT/details.html,1,,1,0,
DRU,DRU,Drumgelloch,55.86735,-3.94888,http://www.nationalrail.co.uk/stations/DRU/details.html,1,,1,0,
DSL,DSL,Disley,53.35818,-2.04248,http://www.nationalrail.co.uk/stations/DSL/details.html,1,,1,0,
DSM,DSM,Darsham,52.27300,1.52347,http://www.nationalrail.co.uk/stations/DSM/details.html,1,,2,0,
DST,DST,Duke Street,55.85844,-4.21305,http://www.nationalrail.co.uk/stations/DST/details.html,1,,1,0,
DSY,DSY,Daisy Hill,53.53945,-2.51586,http://www.nationalrail.co.uk/stations/DSY/details.html,1,,2,1,
DTG,DTG,Dinting,53.44933,-1.97030,http://www.nationalrail.co.uk/stations/DTG/details.html,1,,1,0,
DTN,DTN,Denton,53.45687,-2.13166,http://www.nationalrail.co.uk/stations/DTN/details.html,1,,2,0,
DTW,DTW,Droitwich Spa,52.26820,-2.15836,http://www.nationalrail.co.uk/stations/DTW/details.html,1,,2,2,
DUD,DUD,Duddeston,52.48836,-1.87139,http://www.nationalrail.co.uk/stations/DUD/details.html,1,,1,0,
DUL,DUL,Dullingham,52.20165,0.36666,http://www.nationalrail.co.uk/stations/DUL/details.html,1,,1,2,
DUM,DUM,Dumbreck,55.84465,-4.30124,http://www.nationalrail.co.uk/stations/DUM/details.html,1,,2,0,
DUN,DUN,Dunbar,55.99829,-2.51335,http://www.nationalrail.co.uk/stations/DUN/details.html,1,,1,0,
DUR,DUR,Durrington-on-Sea,50.81753,-0.41147,http://www.nationalrail.co.uk/stations/DUR/details.html,1,,1,0,
DVC,DVC,Dovercourt,51.93874,1.28061,http://www.nationalrail.co.uk/stations/DVC/details.html,1,,2,0,
DVH,DVH,Dove Holes,53.30003,-1.88975,http://www.nationalrail.co.uk/stations/DVH/details.html,1,,1,0,
DVN,DVN,Davenport,53.39090,-2.15296,http://www.nationalrail.co.uk/stations/DVN/details.html,1,,2,0,
DVP,DVP,Dover Priory,51.12570,1.30529,http://www.nationalrail.co.uk/stations/DVP/details.html,1,,1,1,
DVY,DVY,Dovey Junction,52.56436,-3.92390,http://www.nationalrail.co.uk/stations/DVY/details.html,1,,1,1,
DWD,DWD,Dolwyddelan,53.05201,-3.88513,http://www.nationalrail.co.uk/stations/DWD/details.html,1,,1,0,
DWL,DWL,Dawlish,50.58082,-3.46463,http://www.nationalrail.co.uk/stations/DWL/details.html,1,,2,0,
DWN,DWN,Darwen,53.69804,-2.46494,http://www.nationalrail.co.uk/stations/DWN/details.html,1,,1,0,
DWW,DWW,Dawlish Warren,50.59871,-3.44356,http://www.nationalrail.co.uk/stations/DWW/details.html,1,,2,0,
DYC,DYC,Dyce,57.20565,-2.19232,http://www.nationalrail.co.uk/stations/DYC/details.html,1,,2,0,
DYF,DYF,Dyffryn Ardudwy,52.78885,-4.10464,http://www.nationalrail.co.uk/stations/DYF/details.html,1,,2,0,
DYP,DYP,Drayton Park,51.55277,-0.10551,http://www.nationalrail.co.uk/stations/DYP/details.html,1,,2,0,
DZY,DZY,Danzey,52.32481,-1.82088,http://www.nationalrail.co.uk/stations/DZY/details.html,1,,2,0,
EAD,EAD,Earlsfield,51.44234,-0.18771,http://www.nationalrail.co.uk/stations/EAD/details.html,1,,2,0,
EAG,EAG,Eaglescliffe,54.52943,-1.34944,http://www.nationalrail.co.uk/stations/EAG/details.html,1,,1,2,
EAL,EAL,Ealing Broadway,51.51484,-0.30175,http://www.nationalrail.co.uk/stations/EAL/details.html,1,,2,3,
EAR,EAR,Earley,51.44110,-0.91799,http://www.nationalrail.co.uk/stations/EAR/details.html,1,,2,0,
EBA,EBA,Euxton Balshaw Lane,53.66048,-2.67202,http://www.nationalrail.co.uk/stations/EBA/details.html,1,,1,0,
EBB,EBB,Ebbw Vale Town,51.77669,-3.20258,,1,,0,0,
EBD,EBD,Ebbsfleet International,51.44297,0.32092,http://www.nationalrail.co.uk/stations/EBD/details.html,1,,1,1,
EBK,EBK,Eastbrook,51.43764,-3.20614,http://www.nationalrail.co.uk/stations/EBK/details.html,1,,1,0,
EBL,EBL,East Boldon,54.94642,-1.42031,,1,,0,0,
EBN,EBN,Eastbourne,50.76938,0.28125,http://www.nationalrail.co.uk/stations/EBN/details.html,1,,1,2,
EBR,EBR,Edenbridge,51.20844,0.06065,http://www.nationalrail.co.uk/stations/EBR/details.html,1,,2,2,
EBT,EBT,Edenbridge Town,51.20008,0.06717,http://www.nationalrail.co.uk/stations/EBT/details.html,1,,2,1,
EBV,EBV,Ebbw Vale Parkway,51.75714,-3.19610,http://www.nationalrail.co.uk/stations/EBV/details.html,1,,1,0,
ECC,ECC,Eccles,53.48536,-2.33451,http://www.nationalrail.co.uk/stations/ECC/details.html,1,,2,0,
ECL,ECL,Eccleston Park,53.43079,-2.78004,http://www.nationalrail.co.uk/stations/ECL/details.html,1,,1,0,
ECP,ECP,Energlyn & Churchill Park,51.58321,-3.22880,,1,,0,0,
ECR,ECR,East Croydon,51.37545,-0.09278,http://www.nationalrail.co.uk/stations/ECR/details.html,1,,1,2,
ECS,ECS,Eccles Road,52.47088,0.96992,http://www.nationalrail.co.uk/stations/ECS/details.html,1,,2,0,
EDB,EDB,Edinburgh,55.95239,-3.18823,http://www.nationalrail.co.uk/stations/EDB/details.html,1,,1,3,
EDG,EDG,Edge Hill,53.40262,-2.94648,http://www.nationalrail.co.uk/stations/EDG/details.html,1,,1,1,
EDL,EDL,Edale,53.36497,-1.81663,http://www.nationalrail.co.uk/stations/EDL/details.html,1,,2,0,
EDN,EDN,Eden Park,51.39009,-0.02636,http://www.nationalrail.co.uk/stations/EDN/details.html,1,,2,0,
EDP,EDP,Edinburgh Park,55.92755,-3.30766,http://www.nationalrail.co.uk/stations/EDP/details.html,1,,1,0,
EDR,EDR,Edmonton Green,51.62493,-0.06111,http://www.nationalrail.co.uk/stations/EDR/details.html,1,,2,1,
EDW,EDW,East Dulwich,51.46149,-0.08057,http://www.nationalrail.co.uk/stations/EDW/details.html,1,,1,0,
EDY,EDY,East Didsbury,53.40931,-2.22200,http://www.nationalrail.co.uk/stations/EDY/details.html,1,,1,0,
EFF,EFF,Effingham Junction,51.29150,-0.41997,http://www.nationalrail.co.uk/stations/EFF/details.html,1,,2,2,
EFL,EFL,East Farleigh,51.25524,0.48473,http://www.nationalrail.co.uk/stations/EFL/details.html,1,,2,0,
EGF,EGF,East Garforth,53.79198,-1.37054,http://www.nationalrail.co.uk/stations/EGF/details.html,1,,1,0,
EGG,EGG,Eggesford,50.88774,-3.87475,http://www.nationalrail.co.uk/stations/EGG/details.html,1,,1,0,
EGH,EGH,Egham,51.42965,-0.54651,http://www.nationalrail.co.uk/stations/EGH/details.html,1,,2,0,
EGN,EGN,Eastrington,53.75516,-0.78763,http://www.nationalrail.co.uk/stations/EGN/details.html,1,,1,0,
EGR,EGR,East Grinstead,51.12627,-0.01790,http://www.nationalrail.co.uk/stations/EGR/details.html,1,,2,1,
EGT,EGT,Egton,54.43748,-0.76146,http://www.nationalrail.co.uk/stations/EGT/details.html,1,,2,0,
EGY,EGY,Edinburgh Gateway,55.94094,-3.32025,,1,,0,1,
EKB,EKB,Eskbank,55.88180,-3.08307,,1,,0,0,
EKL,EKL,East Kilbride,55.76600,-4.18023,http://www.nationalrail.co.uk/stations/EKL/details.html,1,,1,0,
ELD,ELD,Earlswood (Surrey),51.22733,-0.17082,http://www.nationalrail.co.uk/stations/ELD/details.html,1,,2,0,
ELE,ELE,Elmers End,51.39849,-0.04957,http://www.nationalrail.co.uk/stations/ELE/details.html,1,,1,0,
ELG,ELG,Elgin,57.64291,-3.31125,http://www.nationalrail.co.uk/stations/ELG/details.html,1,,1,1,
ELO,ELO,Elton & Orston,52.95214,-0.85551,http://www.nationalrail.co.uk/stations/ELO/details.html,1,,2,0,
ELP,ELP,Ellesmere Port,53.28219,-2.89642,http://www.nationalrail.co.uk/stations/ELP/details.html,1,,2,2,
ELR,ELR,Elsecar,53.49866,-1.42742,http://www.nationalrail.co.uk/stations/ELR/details.html,1,,1,0,
ELS,ELS,Elstree & Borehamwood,51.65307,-0.28008,http://www.nationalrail.co.uk/stations/ELS/details.html,1,,2,0,
ELW,ELW,Eltham,51.45564,0.05247,http://www.nationalrail.co.uk/stations/ELW/details.html,1,,1,0,
ELY,ELY,Ely,52.39123,0.26683,http://www.nationalrail.co.uk/stations/ELY/details.html,1,,1,2,
EMD,EMD,East Midlands Parkway,52.86250,-1.26323,http://www.nationalrail.co.uk/stations/EMD/details.html,1,,1,2,
EML,EML,East Malling,51.28581,0.43928,http://www.nationalrail.co.uk/stations/EML/details.html,1,,2,0,
EMP,EMP,Emerson Park,51.56864,0.22011,http://www.nationalrail.co.uk/stations/EMP/details.html,1,,1,0,
EMS,EMS,Emsworth,50.85161,-0.93843,http://www.nationalrail.co.uk/stations/EMS/details.html,1,,1,0,
ENC,ENC,Enfield Chase,51.65325,-0.09070,http://www.nationalrail.co.uk/stations/ENC/details.html,1,,2,1,
ENF,ENF,Enfield Town,51.65203,-0.07933,http://www.nationalrail.co.uk/stations/ENF/details.html,1,,1,1,
ENL,ENL,Enfield Lock,51.67092,-0.02853,http://www.nationalrail.co.uk/stations/ENL/details.html,1,,1,1,
ENT,ENT,Entwistle,53.65598,-2.41454,http://www.nationalrail.co.uk/stations/ENT/details.html,1,,1,0,
EPD,EPD,Epsom Downs,51.32369,-0.23895,http://www.nationalrail.co.uk/stations/EPD/details.html,1,,1,0,
EPH,EPH,Elephant & Castle,51.49403,-0.09873,http://www.nationalrail.co.uk/stations/EPH/details.html,1,,2,2,
EPS,EPS,Epsom,51.33439,-0.26878,http://www.nationalrail.co.uk/stations/EPS/details.html,1,,1,2,
ERA,ERA,Eastham Rake,53.30754,-2.98113,http://www.nationalrail.co.uk/stations/ERA/details.html,1,,2,0,
ERB,ERB,Eridge - A26,51.08772,0.20129,,1,,0,1,
ERD,ERD,Erdington,52.52828,-1.83951,http://www.nationalrail.co.uk/stations/ERD/details.html,1,,1,0,
ERH,ERH,Erith,51.48167,0.17505,http://www.nationalrail.co.uk/stations/ERH/details.html,1,,2,0,
ERI,ERI,Eridge,51.08897,0.20143,http://www.nationalrail.co.uk/stations/ERI/details.html,1,,2,0,
ERL,ERL,Earlestown,53.45114,-2.63766,http://www.nationalrail.co.uk/stations/ERL/details.html,1,,2,2,
ESD,ESD,Elmstead Woods,51.41712,0.04427,http://www.nationalrail.co.uk/stations/ESD/details.html,1,,1,0,
ESH,ESH,Esher,51.37989,-0.35334,http://www.nationalrail.co.uk/stations/ESH/details.html,1,,2,0,
ESL,ESL,Eastleigh,50.96925,-1.35008,http://www.nationalrail.co.uk/stations/ESL/details.html,1,,1,2,
ESM,ESM,Elsenham,51.92055,0.22807,http://www.nationalrail.co.uk/stations/ESM/details.html,1,,1,0,
EST,EST,Easterhouse,55.85976,-4.10718,http://www.nationalrail.co.uk/stations/EST/details.html,1,,2,0,
ESW,ESW,Elmswell,52.23804,0.91259,http://www.nationalrail.co.uk/stations/ESW/details.html,1,,1,0,
ETC,ETC,Etchingham,51.01055,0.44236,http://www.nationalrail.co.uk/stations/ETC/details.html,1,,1,0,
ETL,ETL,East Tilbury,51.48483,0.41293,http://www.nationalrail.co.uk/stations/ETL/details.html,1,,1,0,
EUS,EUS,London Euston,51.52814,-0.13392,http://www.nationalrail.co.uk/stations/EUS/details.html,1,,1,3,
EVE,EVE,Evesham,52.09840,-1.94731,http://www.nationalrail.co.uk/stations/EVE/details.html,1,,2,2,
EWD,EWD,Earlswood (West Midlands),52.36658,-1.86117,http://www.nationalrail.co.uk/stations/EWD/details.html,1,,1,0,
EWE,EWE,Ewell East,51.34530,-0.24153,http://www.nationalrail.co.uk/stations/EWE/details.html,1,,2,1,
EWR,EWR,East Worthing,50.82165,-0.35489,http://www.nationalrail.co.uk/stations/EWR/details.html,1,,1,0,
EWW,EWW,Ewell West,51.35004,-0.25699,http://www.nationalrail.co.uk/stations/EWW/details.html,1,,2,1,
EXC,EXC,Exeter Central,50.72648,-3.53328,http://www.nationalrail.co.uk/stations/EXC/details.html,1,,1,1,
EXD,EXD,Exeter St Davids,50.72927,-3.54329,http://www.nationalrail.co.uk/stations/EXD/details.html,1,,1,2,
EXG,EXG,Exhibition Centre (Glasgow),55.86155,-4.28359,http://www.nationalrail.co.uk/stations/EXG/details.html,1,,1,1,
EXM,EXM,Exmouth,50.62163,-3.41497,http://www.nationalrail.co.uk/stations/EXM/details.html,1,,1,0,
EXN,EXN,Exton,50.66830,-3.44410,http://www.nationalrail.co.uk/stations/EXN/details.html,1,,2,0,
EXR,EXR,Essex Road,51.54071,-0.09628,http://www.nationalrail.co.uk/stations/EXR/details.html,1,,2,0,
EXT,EXT,Exeter St Thomas,50.71715,-3.53884,http://www.nationalrail.co.uk/stations/EXT/details.html,1,,2,0,
EYN,EYN,Eynsford,51.36272,0.20439,http://www.nationalrail.co.uk/stations/EYN/details.html,1,,2,0,
FAL,FAL,Falmouth Docks,50.15071,-5.05603,http://www.nationalrail.co.uk/stations/FAL/details.html,1,,1,0,
FAV,FAV,Faversham,51.31171,0.89105,http://www.nationalrail.co.uk/stations/FAV/details.html,1,,1,1,
FAZ,FAZ,Fazakerley,53.46908,-2.93672,http://www.nationalrail.co.uk/stations/FAZ/details.html,1,,1,0,
FBY,FBY,Formby,53.55348,-3.07091,http://www.nationalrail.co.uk/stations/FBY/details.html,1,,2,0,
FCN,FCN,Falconwood,51.45915,0.07930,http://www.nationalrail.co.uk/stations/FCN/details.html,1,,2,0,
FEA,FEA,Featherstone,53.67907,-1.35844,http://www.nationalrail.co.uk/stations/FEA/details.html,1,,2,0,
FEL,FEL,Feltham,51.44790,-0.40984,http://www.nationalrail.co.uk/stations/FEL/details.html,1,,1,2,
FEN,FEN,Fenny Stratford,52.00007,-0.71600,http://www.nationalrail.co.uk/stations/FEN/details.html,1,,2,0,
FER,FER,Fernhill,51.68649,-3.39588,http://www.nationalrail.co.uk/stations/FER/details.html,1,,1,0,
FFA,FFA,Ffairfach,51.87247,-3.99286,http://www.nationalrail.co.uk/stations/FFA/details.html,1,,2,0,
FFD,FFD,Freshford,51.34203,-2.30101,http://www.nationalrail.co.uk/stations/FFD/details.html,1,,2,0,
FGH,FGH,Fishguard Harbour,52.01154,-4.98564,http://www.nationalrail.co.uk/stations/FGH/details.html,1,,1,1,
FGT,FGT,Faygate,51.09589,-0.26302,http://www.nationalrail.co.uk/stations/FGT/details.html,1,,1,0,
FGW,FGW,Fishguard & Goodwick,52.00411,-4.99484,http://www.nationalrail.co.uk/stations/FGW/details.html,1,,2,0,
FIL,FIL,Filey,54.20986,-0.29385,http://www.nationalrail.co.uk/stations/FIL/details.html,1,,1,0,
FIN,FIN,Finstock,51.85278,-1.46934,http://www.nationalrail.co.uk/stations/FIN/details.html,1,,2,0,
FIT,FIT,Filton Abbey Wood,51.50494,-2.56243,http://www.nationalrail.co.uk/stations/FIT/details.html,1,,1,2,
FKC,FKC,Folkestone Central,51.08289,1.16948,http://www.nationalrail.co.uk/stations/FKC/details.html,1,,1,1,
FKG,FKG,Falkirk Grahamston,56.00261,-3.78505,http://www.nationalrail.co.uk/stations/FKG/details.html,1,,2,2,
FKK,FKK,Falkirk High,55.99182,-3.79224,http://www.nationalrail.co.uk/stations/FKK/details.html,1,,2,1,
FKW,FKW,Folkestone West,51.08459,1.15390,http://www.nationalrail.co.uk/stations/FKW/details.html,1,,1,0,
FLD,FLD,Fauldhouse,55.82247,-3.71932,http://www.nationalrail.co.uk/stations/FLD/details.html,1,,2,0,
FLE,FLE,Fleet,51.29063,-0.83081,http://www.nationalrail.co.uk/stations/FLE/details.html,1,,2,0,
FLF,FLF,Flowery Field,53.46185,-2.08105,http://www.nationalrail.co.uk/stations/FLF/details.html,1,,2,0,
FLI,FLI,Flixton,53.44381,-2.38425,http://www.nationalrail.co.uk/stations/FLI/details.html,1,,1,0,
FLM,FLM,Flimby,54.68969,-3.52074,http://www.nationalrail.co.uk/stations/FLM/details.html,1,,2,0,
FLN,FLN,Flint,53.24952,-3.13299,http://www.nationalrail.co.uk/stations/FLN/details.html,1,,1,0,
FLT,FLT,Flitwick,52.00364,-0.49526,http://www.nationalrail.co.uk/stations/FLT/details.html,1,,2,2,
FLW,FLW,Fulwell,51.43394,-0.34947,http://www.nationalrail.co.uk/stations/FLW/details.html,1,,2,0,
FLX,FLX,Felixstowe,51.96707,1.35044,http://www.nationalrail.co.uk/stations/FLX/details.html,1,,1,0,
FML,FML,Frimley,51.31186,-0.74699,http://www.nationalrail.co.uk/stations/FML/details.html,1,,2,0,
FMR,FMR,Falmer,50.86213,-0.08739,http://www.nationalrail.co.uk/stations/FMR/details.html,1,,1,0,
FMT,FMT,Falmouth Town,50.14834,-5.06493,http://www.nationalrail.co.uk/stations/FMT/details.html,1,,1,0,
FNB,FNB,Farnborough (Main),51.29669,-0.75544,http://www.nationalrail.co.uk/stations/FNB/details.html,1,,1,2,
FNC,FNC,Farncombe,51.19715,-0.60455,http://www.nationalrail.co.uk/stations/FNC/details.html,1,,2,0,
FNH,FNH,Farnham,51.21190,-0.79243,http://www.nationalrail.co.uk/stations/FNH/details.html,1,,2,1,
FNN,FNN,Farnborough North,51.30204,-0.74303,http://www.nationalrail.co.uk/stations/FNN/details.html,1,,2,2,
FNR,FNR,Farningham Road,51.40167,0.23545,http://www.nationalrail.co.uk/stations/FNR/details.html,1,,2,0,
FNT,FNT,Feniton,50.78668,-3.28542,http://www.nationalrail.co.uk/stations/FNT/details.html,1,,1,0,
FNV,FNV,Furness Vale,53.34875,-1.98884,http://www.nationalrail.co.uk/stations/FNV/details.html,1,,1,0,
FNW,FNW,Farnworth,53.55000,-2.38785,http://www.nationalrail.co.uk/stations/FNW/details.html,1,,1,0,
FNY,FNY,Finchley Road & Frognal,51.55027,-0.18314,http://www.nationalrail.co.uk/stations/FNY/details.html,1,,2,0,
FOC,FOC,Falls of Cruachan,56.39388,-5.11248,http://www.nationalrail.co.uk/stations/FOC/details.html,1,,2,0,
FOD,FOD,Ford,50.82939,-0.57841,http://www.nationalrail.co.uk/stations/FOD/details.html,1,,1,2,
FOG,FOG,Forest Gate,51.54943,0.02435,http://www.nationalrail.co.uk/stations/FOG/details.html,1,,2,1,
FOH,FOH,Forest Hill,51.43928,-0.05316,http://www.nationalrail.co.uk/stations/FOH/details.html,1,,2,1,
FOK,FOK,Four Oaks,52.57978,-1.82803,http://www.nationalrail.co.uk/stations/FOK/details.html,1,,1,0,
FOR,FOR,Forres,57.60980,-3.62595,http://www.nationalrail.co.uk/stations/FOR/details.html,1,,2,0,
FOX,FOX,Foxfield,54.25867,-3.21606,http://www.nationalrail.co.uk/stations/FOX/details.html,1,,1,0,
FPK,FPK,Finsbury Park,51.56430,-0.10628,http://www.nationalrail.co.uk/stations/FPK/details.html,1,,2,2,
FRB,FRB,Fairbourne,52.69604,-4.04941,http://www.nationalrail.co.uk/stations/FRB/details.html,1,,2,0,
FRD,FRD,Frodsham,53.29582,-2.72357,http://www.nationalrail.co.uk/stations/FRD/details.html,1,,1,0,
FRE,FRE,Freshfield,53.56605,-3.07183,http://www.nationalrail.co.uk/stations/FRE/details.html,1,,1,0,
FRF,FRF,Fairfield,53.47129,-2.14577,http://www.nationalrail.co.uk/stations/FRF/details.html,1,,2,0,
FRI,FRI,Frinton-on-Sea,51.83768,1.24317,http://www.nationalrail.co.uk/stations/FRI/details.html,1,,1,0,
FRL,FRL,Fairlie,55.75194,-4.85327,http://www.nationalrail.co.uk/stations/FRL/details.html,1,,1,0,
FRM,FRM,Fareham,50.85303,-1.19204,http://www.nationalrail.co.uk/stations/FRM/details.html,1,,1,2,
FRN,FRN,Fearn,57.77814,-3.99394,http://www.nationalrail.co.uk/stations/FRN/details.html,1,,1,0,
FRO,FRO,Frome,51.22727,-2.31000,http://www.nationalrail.co.uk/stations/FRO/details.html,1,,1,1,
FRS,FRS,Forsinard,58.35690,-3.89688,http://www.nationalrail.co.uk/stations/FRS/details.html,1,,2,0,
FRT,FRT,Frant,51.10403,0.29454,http://www.nationalrail.co.uk/stations/FRT/details.html,1,,2,0,
FRW,FRW,Fairwater,51.49391,-3.23384,http://www.nationalrail.co.uk/stations/FRW/details.html,1,,1,0,
FRY,FRY,Ferriby,53.71715,-0.50783,http://www.nationalrail.co.uk/stations/FRY/details.html,1,,1,0,
FSB,FSB,Fishbourne,50.83905,-0.81508,http://www.nationalrail.co.uk/stations/FSB/details.html,1,,1,0,
FSG,FSG,Fishersgate,50.83423,-0.21942,http://www.nationalrail.co.uk/stations/FSG/details.html,1,,1,0,
FSK,FSK,Fiskerton,53.06027,-0.91219,http://www.nationalrail.co.uk/stations/FSK/details.html,1,,1,0,
FST,FST,London Fenchurch Street,51.51165,-0.07890,http://www.nationalrail.co.uk/stations/FST/details.html,1,,1,3,
FTM,FTM,Fort Matilda,55.95903,-4.79527,http://www.nationalrail.co.uk/stations/FTM/details.html,1,,2,0,
FTN,FTN,Fratton,50.79634,-1.07398,http://www.nationalrail.co.uk/stations/FTN/details.html,1,,2,2,
FTW,FTW,Fort William,56.82044,-5.10614,http://www.nationalrail.co.uk/stations/FTW/details.html,1,,1,1,
FWY,FWY,Five Ways,52.47109,-1.91295,http://www.nationalrail.co.uk/stations/FWY/details.html,1,,1,0,
FXN,FXN,Foxton,52.11921,0.05631,http://www.nationalrail.co.uk/stations/FXN/details.html,1,,1,0,
FYS,FYS,Ferryside,51.76837,-4.36946,http://www.nationalrail.co.uk/stations/FYS/details.html,1,,1,0,
FZH,FZH,Frizinghall,53.82037,-1.76900,http://www.nationalrail.co.uk/stations/FZH/details.html,1,,1,0,
FZP,FZP,Furze Platt,51.53302,-0.72847,http://www.nationalrail.co.uk/stations/FZP/details.html,1,,1,0,
FZW,FZW,Fitzwilliam,53.63250,-1.37427,http://www.nationalrail.co.uk/stations/FZW/details.html,1,,1,1,
GAL,GAL,Galashiels,55.61790,-2.80595,,1,,0,0,
GAR,GAR,Garrowhill,55.85524,-4.12946,http://www.nationalrail.co.uk/stations/GAR/details.html,1,,2,0,
GBD,GBD,Gilberdyke,53.74796,-0.73224,http://www.nationalrail.co.uk/stations/GBD/details.html,1,,2,1,
GBG,GBG,Gorebridge,55.84027,-3.04652,,1,,0,1,
GBK,GBK,Greenbank,53.25146,-2.53427,http://www.nationalrail.co.uk/stations/GBK/details.html,1,,1,1,
GBL,GBL,Gainsborough Lea Road,53.38609,-0.76858,http://www.nationalrail.co.uk/stations/GBL/details.html,1,,1,1,
GBS,GBS,Goring-by-Sea,50.81772,-0.43308,http://www.nationalrail.co.uk/stations/GBS/details.html,1,,1,0,
GCH,GCH,Garelochhead,56.07986,-4.82572,http://www.nationalrail.co.uk/stations/GCH/details.html,1,,2,0,
GCR,GCR,Gloucester,51.86556,-2.23849,http://www.nationalrail.co.uk/stations/GCR/details.html,1,,2,2,
GCT,GCT,Great Coates,53.57575,-0.13023,http://www.nationalrail.co.uk/stations/GCT/details.html,1,,1,0,
GCW,GCW,Glan Conwy,53.26742,-3.79773,http://www.nationalrail.co.uk/stations/GCW/details.html,1,,1,0,
GDH,GDH,Gordon Hill,51.66334,-0.09461,http://www.nationalrail.co.uk/stations/GDH/details.html,1,,2,1,
GDL,GDL,Godley,53.45170,-2.05477,http://www.nationalrail.co.uk/stations/GDL/details.html,1,,2,1,
GDN,GDN,Godstone,51.21816,-0.05008,http://www.nationalrail.co.uk/stations/GDN/details.html,1,,2,0,
GDP,GDP,Gidea Park,51.58190,0.20596,http://www.nationalrail.co.uk/stations/GDP/details.html,1,,2,1,
GEA,GEA,Gretna Green,55.00105,-3.06520,http://www.nationalrail.co.uk/stations/GEA/details.html,1,,1,0,
GER,GER,Gerrards Cross,51.58902,-0.55528,http://www.nationalrail.co.uk/stations/GER/details.html,1,,2,2,
GFD,GFD,Greenford,51.54233,-0.34584,http://www.nationalrail.co.uk/stations/GFD/details.html,1,,2,1,
GFF,GFF,Gilfach Fargoed,51.68425,-3.22657,http://www.nationalrail.co.uk/stations/GFF/details.html,1,,2,0,
GFN,GFN,Giffnock,55.80399,-4.29301,http://www.nationalrail.co.uk/stations/GFN/details.html,1,,2,0,
GGJ,GGJ,Georgemas Junction,58.51362,-3.45212,http://www.nationalrail.co.uk/stations/GGJ/details.html,1,,1,0,
GGV,GGV,Gargrave,53.97842,-2.10517,http://www.nationalrail.co.uk/stations/GGV/details.html,1,,1,0,
GIG,GIG,Giggleswick,54.06180,-2.30285,http://www.nationalrail.co.uk/stations/GIG/details.html,1,,1,0,
GIL,GIL,Gillingham (Dorset),51.03403,-2.27262,http://www.nationalrail.co.uk/stations/GIL/details.html,1,,2,2,
GIP,GIP,Gipsy Hill,51.42445,-0.08384,http://www.nationalrail.co.uk/stations/GIP/details.html,1,,2,0,
GIR,GIR,Girvan,55.24631,-4.84838,http://www.nationalrail.co.uk/stations/GIR/details.html,1,,2,0,
GKC,GKC,Greenock Central,55.94534,-4.75263,http://www.nationalrail.co.uk/stations/GKC/details.html,1,,1,0,
GKW,GKW,Greenock West,55.94734,-4.76783,http://www.nationalrail.co.uk/stations/GKW/details.html,1,,2,0,
GLC,GLC,Glasgow Central,55.85976,-4.25764,http://www.nationalrail.co.uk/stations/GLC/details.html,1,,1,3,
GLD,GLD,Guildford,51.23697,-0.58042,http://www.nationalrail.co.uk/stations/GLD/details.html,1,,1,2,
GLE,GLE,Gleneagles,56.27485,-3.73117,http://www.nationalrail.co.uk/stations/GLE/details.html,1,,2,0,
GLF,GLF,Glenfinnan,56.87240,-5.44962,http://www.nationalrail.co.uk/stations/GLF/details.html,1,,2,0,
GLG,GLG,Glengarnock,55.73889,-4.67450,http://www.nationalrail.co.uk/stations/GLG/details.html,1,,2,1,
GLH,GLH,Glasshoughton,53.70904,-1.34201,http://www.nationalrail.co.uk/stations/GLH/details.html,1,,1,1,
GLM,GLM,Gillingham (Kent),51.38657,0.54985,http://www.nationalrail.co.uk/stations/GLM/details.html,1,,1,1,
GLO,GLO,Glossop,53.44447,-1.94907,http://www.nationalrail.co.uk/stations/GLO/details.html,1,,1,0,
GLQ,GLQ,Glasgow Queen Street,55.86219,-4.25146,http://www.nationalrail.co.uk/stations/GLQ/details.html,1,,1,3,
GLS,GLS,Glaisdale,54.43938,-0.79379,http://www.nationalrail.co.uk/stations/GLS/details.html,1,,2,0,
GLT,GLT,Glenrothes with Thornton,56.16236,-3.14302,http://www.nationalrail.co.uk/stations/GLT/details.html,1,,1,1,
GLY,GLY,Glynde,50.85917,0.07008,http://www.nationalrail.co.uk/stations/GLY/details.html,1,,2,0,
GLZ,GLZ,Glazebrook,53.42836,-2.45966,http://www.nationalrail.co.uk/stations/GLZ/details.html,1,,2,0,
GMB,GMB,Grimsby Town,53.56343,-0.08698,http://www.nationalrail.co.uk/stations/GMB/details.html,1,,1,1,
GMD,GMD,Grimsby Docks,53.57432,-0.07562,http://www.nationalrail.co.uk/stations/GMD/details.html,1,,1,0,
GMG,GMG,Garth (Bridgend),51.59646,-3.64145,http://www.nationalrail.co.uk/stations/GMG/details.html,1,,1,0,
GMN,GMN,Great Missenden,51.70352,-0.70914,http://www.nationalrail.co.uk/stations/GMN/details.html,1,,1,1,
GMT,GMT,Grosmont,54.43611,-0.72497,http://www.nationalrail.co.uk/stations/GMT/details.html,1,,1,0,
GMV,GMV,Great Malvern,52.10920,-2.31827,http://www.nationalrail.co.uk/stations/GMV/details.html,1,,1,1,
GMY,GMY,Goodmayes,51.56558,0.11081,http://www.nationalrail.co.uk/stations/GMY/details.html,1,,2,0,
GNB,GNB,Gainsborough Central,53.39958,-0.76969,http://www.nationalrail.co.uk/stations/GNB/details.html,1,,2,1,
GNF,GNF,Greenfield,53.53886,-2.01384,http://www.nationalrail.co.uk/stations/GNF/details.html,1,,2,0,
GNH,GNH,Greenhithe for Bluewater,51.45037,0.28029,http://www.nationalrail.co.uk/stations/GNH/details.html,1,,1,0,
GNL,GNL,Green Lane,53.38325,-3.01641,http://www.nationalrail.co.uk/stations/GNL/details.html,1,,2,0,
GNR,GNR,Green Road,54.24453,-3.24557,http://www.nationalrail.co.uk/stations/GNR/details.html,1,,1,0,
GNT,GNT,Gunton,52.86635,1.34912,http://www.nationalrail.co.uk/stations/GNT/details.html,1,,1,0,
GNW,GNW,Greenwich,51.47814,-0.01334,http://www.nationalrail.co.uk/stations/GNW/details.html,1,,1,1,
GOB,GOB,Gobowen,52.89351,-3.03717,http://www.nationalrail.co.uk/stations/GOB/details.html,1,,1,0,
GOD,GOD,Godalming,51.18659,-0.61886,http://www.nationalrail.co.uk/stations/GOD/details.html,1,,1,0,
GOE,GOE,Goldthorpe,53.53419,-1.31281,http://www.nationalrail.co.uk/stations/GOE/details.html,1,,1,0,
GOF,GOF,Golf Street,56.49779,-2.71954,http://www.nationalrail.co.uk/stations/GOF/details.html,1,,2,0,
GOL,GOL,Golspie,57.97146,-3.98721,http://www.nationalrail.co.uk/stations/GOL/details.html,1,,2,0,
GOM,GOM,Gomshall,51.21940,-0.44185,http://www.nationalrail.co.uk/stations/GOM/details.html,1,,2,1,
